order_id,customer_id,date,nearest_warehouse,shopping_cart,order_price,delivery_charges,customer_lat,customer_long,coupon_discount,order_total,season,is_expedited_delivery,distance_to_nearest_warehouse,latest_customer_review,is_happy_customer
ORD425445,ID6167231029,2019-10-02,Thompson,"[('pearTV', 1), ('Lucent 330S', 2), ('Candle Inferno', 1), ('iAssist Line', 2)]",13650.0,61.16,-37.8138047,144.9574646,5,13028.66,Spring,False,0.9229,very dissatisfied we purchased this phone in november and it is already refusing to charge..feel like we were ripped off:(,0.0
ORD003623,ID2288769473,2019-05-25,Bakers,"[('Thunder line', 2), ('iAssist Line', 1), ('Universe Note', 2), ('iStream', 1)]",13635.0,50.35,-37.8018235,145.0034743,5,13003.6,Autumn,False,1.1632,false advertising i bought the phone expecting tht it would be unlocked as advertised and was very disappointed tht it wasn't. had to wait a whole 20 days to get it unlocked and paid a whole lot more. tht was not cool but i got it to work and the data service still had issues,0.0
ORD235031,ID6167489432,2019-12-20,Thompson,"[('Alcon 10', 2), ('Universe Note', 2)]",24800.0,94.76,-37.811960600000006,144.9594735,25,18694.76,Summer,True,1.0938,"great phone for the money i need a cheap phone for foreign travel and found that this recently released phone has pretty good reviews. to be honest, its just as good as my alcon 6 in most ways, though the audio is not quite as good. for the money, a great phone.",1.0
ORD218801,ID0370244513,2019-07-04,Nickolson,"[('Lucent 330S', 2), ('Toshika 750', 1), ('Alcon 10', 1)]",15730.0,57.36,-37.8016383,144.9690525,10,14214.36,Winter,False,1.8881,"bad buy the cell worked two months and there was no more, not if the battery is damaged or just came",0.0
ORD049338,ID2442297408,2019-05-10,Thompson,"[('Universe Note', 1), ('Lucent 330S', 2), ('Alcon 10', 2)]",23810.0,64.3,-37.8178098,144.95166609999995,25,17921.8,Autumn,False,0.7003,love my candle it does everything i wanted i to do.,1.0
ORD313517,ID0746912634,2019-01-25,Nickolson,"[('iAssist Line', 2), ('Olivia x460', 2), ('Thunder line', 2), ('iStream', 2)]",11560.0,79.17,-37.8257466,144.9844918,5,11061.17,Summer,False,1.5361,good buy so much faster than any of my previous phones. video is crisp and vibrant. sound quality is goo enough for me. great phone for the low price compared to the top shelf stuff.,1.0
ORD396996,ID0844481066,2019-01-28,Thompson,"[('Universe Note', 1), ('Toshika 750', 1), ('Candle Inferno', 1), ('Thunder line', 1)]",10380.0,58.27,-37.820561100000006,144.94878880000005,0,10438.27,Summer,False,0.8909999999999999,"the phone was advertised as new and it is not ... the phone was advertised as new and it is not. it was not in working order either. when making a call, caller can not hear me.",0.0
ORD415471,ID0030943513,2019-01-28,Thompson,"[('Olivia x460', 1), ('Toshika 750', 2), ('Candle Inferno', 1), ('pearTV', 1)]",16605.0,76.53,-37.8059885,144.95708390000001,15,14190.78,Summer,False,1.153,love this phone!!! fast phone and easy setup. very intuitive and easy to use. so glad i switched from a olivia!! already have pi installed and there were no install errors or slow down of apps after install.,1.0
ORD441045,ID2191735060,2019-08-03,Nickolson,"[('iAssist Line', 1), ('Olivia x460', 2), ('pearTV', 1)]",10985.0,67.69,-37.8235573,144.95612350000005,15,9404.94,Winter,False,1.3035,five stars beautiful little phone just what i ordered,1.0
ORD219393,ID5402876166,2019-06-30,Nickolson,"[('pearTV', 1), ('Universe Note', 2), ('iStream', 1)]",13360.0,75.26000000000022,-37.82005570000001,144.9768385,15,11431.26,Winter,True,0.6611,works as expected still a good phone for the money after 1-1/2 years. i would by another xp.,1.0
ORD134021,ID0746912540,2019-07-14,Nickolson,"[('Candle Inferno', 2), ('iStream', 1), ('Alcon 10', 1), ('Lucent 330S', 2)]",12420.0,54.47999999999956,-37.8255347,144.9827832,25,9369.48,Winter,False,1.3966,one star no lo compren basura,0.0
ORD187115,ID0356126633,2019-10-29,Bakers,"[('pearTV', 2), ('Toshika 750', 2), ('iAssist Line', 1)]",23485.0,89.0,-37.819187299999996,144.9876191,25,17702.75,Spring,True,1.2227,"wrong specification there are many versions of lucent e5. i also purchased the current version (2018). i compared both phones and the current version looks a little bit better. but note that the version of xt1921-2 does not have a fingerprint reader, which for me is a deal breaker. both phones are going back.",0.0
ORD161623,ID4315827366,2019-07-17,Bakers,"[('Universe Note', 1), ('Lucent 330S', 2), ('Candle Inferno', 2), ('Toshika 750', 1)]",11090.0,74.95,-37.81219820000001,145.00032990000003,15,9501.45,Winter,True,0.511,... the s7 from the s6 and am finding it great so far i upgraded to the s7 from the s6 and am finding it great so far. it looks really nice and i like the wallpaper theme i found on the phone. i've had several olivia universe sx phone so far and liked them all.,1.0
ORD202556,ID0176703266,2019-08-04,Nickolson,"[('Universe Note', 2), ('Candle Inferno', 1), ('iAssist Line', 2), ('Alcon 10', 2)]",29680.0,78.07,-37.811156,144.96408069999995,10,26790.07,Winter,True,0.9577,perfect fit. only smart phone i've ever owned. does all i want and then some. fits perfectly in my work shirt or jacket pocket. clear reception.,1.0
ORD317169,ID3144992713,2019-01-23,Bakers,"[('Toshika 750', 2), ('Thunder line', 1), ('Lucent 330S', 2)]",13280.0,77.29,-37.81383710000001,144.98873989999996,5,12693.29,Summer,True,0.7133,smells like cigarettes! makes me sick every time i use ... phone is awful! the previous owner was a smoker! smells like cigarettes! makes me sick every time i use it. i have tried to clean it and nothing works. i am really disappointed!,0.0
ORD188862,ID0582798802,2019-05-19,Nickolson,"[('Universe Note', 2), ('Toshika 750', 2), ('Lucent 330S', 2), ('Thunder line', 1)]",20180.0,66.05999999999949,-37.82357879999999,144.98048899999995,25,15201.06,Autumn,False,1.1103,great entry level phone. buy if 64 gb of storage is enough for you. what i dislike the most is that i can't use my storage card slot. the phone has dual sim and my sim was only recognized where the storage card goes.,1.0
ORD169118,ID0560997644,2019-03-24,Thompson,"[('Candle Inferno', 2), ('Alcon 10', 2), ('Olivia x460', 1), ('Lucent 330S', 1)]",21215.0,63.38,-37.8108598,144.93843969999998,15,18096.13,Autumn,True,0.7853,one star very bad,0.0
ORD158564,ID4520380434,2019-02-11,Thompson,"[('Alcon 10', 1), ('iStream', 2)]",9250.0,92.87,-37.819435799999994,144.96113359999995,5,8880.37,Summer,True,1.0279526923314972,five stars my husband refuses to smart phone and this was a replacement for his worn out one. he loves it!!!,1.0
ORD209946,ID0594179891,2019-12-08,Nickolson,"[('pearTV', 2), ('Universe Note', 2)]",19520.0,74.53,-37.8164343,144.96530769999995,25,14714.53,Summer,True,0.4439,stopped working within 3 months. phone stopped working after 2 1/2 months. thats like $100 a month!!,0.0
ORD358672,ID2005895267,2019-01-22,Nickolson,"[('Olivia x460', 2), ('Universe Note', 2), ('Candle Inferno', 2), ('Alcon 10', 1)]",19160.0,69.09,-37.80333020000001,144.9657419,25,14439.09,Summer,False,1.7319,one star the product comes with a broken screen very satisfied,0.0
ORD241360,ID0777771693,2019-12-17,Thompson,"[('iStream', 2), ('Universe Note', 2), ('Olivia x460', 2)]",9650.0,99.51,-37.8062667,144.9599949,0,9749.51,Summer,True,1.3419999999999999,very easy to install.  very intuitive to use.  very happy with the purchase.,1.0
ORD313549,ID0291211344,2019-11-29,Nickolson,"[('iStream', 1), ('pearTV', 1)]",6460.0,82.07,-37.8087831,144.9612867,5,6219.07,Spring,False,1.3119,i love this phone i love this phone ... switched from a htc... only draw back i have to constantly change around my charges... and it sometimes won't charge when it's on ...,1.0
ORD446225,ID1964023936,2019-07-25,Thompson,"[('Olivia x460', 2), ('Lucent 330S', 2)]",4910.0,64.44,-37.8193052,144.9517384,15,4237.94,Winter,False,0.8448,which is disappointing but it is a great phone. it is okay but it does not have a front camera. which is disappointing but it is a great phone.,1.0
ORD012802,ID0638053773,2019-07-21,Nickolson,"[('Universe Note', 1), ('Alcon 10', 1), ('pearTV', 2)]",25020.0,47.67,-37.817783899999995,144.96602019999997,10,22565.67,Winter,False,0.3233,i expected more from olivia. skin peels off. battery goes bad soon.,0.0
ORD130312,ID5096779239,2019-08-15,Nickolson,"[('iStream', 2), ('Candle Inferno', 1)]",730.0,85.04,-37.801201899999995,144.96992930000005,0,815.04,Winter,True,1.9364,great buy! yes great purchase!,1.0
ORD236100,ID0777790992,2019-03-30,Thompson,"[('Alcon 10', 2), ('Thunder line', 1)]",20080.0,78.11,-37.808395399999995,144.9549645,15,17146.11,Autumn,True,0.8420000000000001,"as advertised, great product! works fine, no problems!",1.0
ORD138932,ID5002595006,2019-10-09,Thompson,"[('iAssist Line', 2), ('Universe Note', 1), ('pearTV', 2), ('Olivia x460', 2)]",22970.0,72.21,-37.812772499999994,144.9516406,25,17299.71,Spring,False,0.4022,"amazing! fingerprint sucks, but face recognition is amazing! i highly recommend it.",1.0
ORD383233,ID4315294434,2019-06-15,Thompson,"[('Toshika 750', 1), ('Olivia x460', 1), ('Universe Note', 2), ('iAssist Line', 2)]",16895.0,65.14,-37.8170456,144.9532158,15,14425.89,Winter,False,0.7274,"digico and company hits the mark everytime. great phone with all the current technology at a great price. i purchased the phone because it comes with digico help, if needed. i my case i had the phone up and running in less then 15 mins.",1.0
ORD116857,ID0248266307,2019-07-12,Bakers,"[('Candle Inferno', 2), ('iStream', 1)]",1010.0,82.76999999999998,-37.8249062,144.9911605,5,1042.27,Winter,True,1.6979,five stars toshika is always a good choice. this phone is great!,1.0
ORD200403,ID0373651915,2019-11-26,Thompson,"[('iAssist Line', 1), ('Lucent 330S', 1), ('Toshika 750', 1), ('Olivia x460', 2)]",10225.0,83.26,-37.81209060000001,144.9276731,10,9285.76,Spring,False,1.115387334832022,five stars my son loved this phone.,1.0
ORD455072,ID0243963290,2019-02-16,Nickolson,"[('Thunder line', 1), ('pearTV', 2), ('Candle Inferno', 1)]",15230.0,84.56,-37.8197258,144.9696551,15,13030.06,Summer,True,0.1262,five stars big improvement over our old s3,1.0
ORD396485,ID3001606054,2019-03-29,Thompson,"[('Lucent 330S', 1), ('pearTV', 1), ('Universe Note', 1)]",10990.0,62.92,-37.8182341,144.9474408,15,9404.42,Autumn,False,0.6199,perfect great phone does everything i need and more,1.0
ORD156894,ID0589501836,2019-05-11,Nickolson,"[('Olivia x460', 1), ('iAssist Line', 2), ('pearTV', 1)]",11985.0,81.38,-37.8203042,144.9573618,10,10867.88,Autumn,True,1.0886,amazing amazing,1.0
ORD075954,ID0579391943,2019-10-25,Nickolson,"[('Alcon 10', 2), ('Universe Note', 1), ('iStream', 2), ('Candle Inferno', 2)]",22510.0,104.19,-37.822149100000004,144.95605880000005,5,21488.69,Spring,True,1.2506,works well with t-mobile service. works well with t-mobile sim card for text and message.,1.0
ORD091150,ID2457712046,2019-01-13,Bakers,"[('Olivia x460', 2), ('iAssist Line', 1)]",4675.0,100.19999999999982,-37.8044394,144.9785221,5,4541.45,Summer,True,1.5945,phone for my son i just got it and so far it's great,1.0
ORD023600,ID0560986725,2019-02-25,Thompson,"[('Olivia x460', 1), ('iStream', 2), ('Universe Note', 1)]",4975.0,73.74,-37.8195201,144.94351269999999,25,3804.99,Summer,False,0.8238,works great phone wrks as it should,1.0
ORD132972,ID0410107563,2019-03-20,Bakers,"[('Candle Inferno', 1), ('Thunder line', 1)]",2610.0,81.96,-37.8201154,145.0098166,10,2430.96,Autumn,True,1.7069999999999999,love it obsessed with the battery life,1.0
ORD468507,ID0036823157,2019-11-20,Thompson,"[('iAssist Line', 1), ('Universe Note', 2)]",9125.0,106.93,-37.8254348,144.9479158,0,9231.93,Spring,True,1.4225,"to me the best money value i use to have a lucent g4 but the g6 seems to be much improved. better sound, better camara, longerstanting battery and mantaining all the other features. let's hope is as sturdy as the g4.",1.0
ORD419570,ID5797758273,2019-01-08,Thompson,"[('Toshika 750', 2), ('Lucent 330S', 1), ('Candle Inferno', 2)]",10730.0,91.8,-37.806676700000004,144.9451204,0,10821.8,Summer,True,1.0279526923314972,"best phone ever best phone ever. i needed a new phone and i was between this one, olivia note 9, and google pixel. this is the best looking phone, way better camera, it works great with my wireless headphones, and the blue is the best.",1.0
ORD376121,ID2672355459,2019-11-30,Bakers,"[('Thunder line', 2), ('Lucent 330S', 2)]",6820.0,79.48,-37.7991393,144.9891178,25,5194.48,Spring,False,1.3228,great phone great phone for the price.,1.0
ORD368712,ID3608381838,2019-04-07,Bakers,"[('Universe Note', 1), ('Thunder line', 2), ('Toshika 750', 1), ('iAssist Line', 1)]",14355.0,80.21,-37.8170182,144.98537040000005,10,12999.71,Autumn,True,1.1675,phone was in perfect condition. came sealed and packed with charger. also included instructions for setting up phone for different cell phone carriers. phone was in perfect condition.,1.0
ORD365196,ID0202495424,2019-03-02,Thompson,"[('Thunder line', 1), ('iStream', 2)]",2480.0,83.12,-37.80184000000001,144.9287179,5,2439.12,Autumn,True,2.0147,good deal for a nice phon i like the size . android on it acts decently.,1.0
ORD097958,ID6167236656,2019-01-23,Nickolson,"[('Thunder line', 2), ('Lucent 330S', 1)]",5590.0,73.42,-37.8114581,144.9646549,5,5383.92,Summer,False,0.9036,i upgraded from a 7 to an 8 inch. what a difference. totally satisfied would recommend this to everyone i know,1.0
ORD327250,ID2096325801,2019-10-24,Thompson,"[('Toshika 750', 2), ('iAssist Line', 1), ('Lucent 330S', 2), ('Olivia x460', 2)]",15775.0,80.8,-37.8008011,144.95349099999999,25,11912.05,Spring,False,1.4372,best purchase awesome phone.,1.0
ORD356326,ID1479897550,2019-10-17,Nickolson,"[('pearTV', 2), ('Olivia x460', 1)]",13845.0,103.35,-37.820039799999996,144.958327,25,10487.1,Spring,True,1.0,five stars nice product at a good price.,1.0
ORD246106,ID0597911558,2019-02-01,Nickolson,"[('Olivia x460', 1), ('Universe Note', 2)]",8125.0,88.47,-37.8153395,144.9653219,25,6182.22,Summer,True,0.5193,five stars like very much,1.0
ORD438352,ID1463620399,2019-06-10,Bakers,"[('iAssist Line', 1), ('Toshika 750', 1), ('iStream', 1)]",6695.0,66.93,-37.81700170000001,145.0049113,5,6427.18,Winter,False,1.1544,got this when they were on sale last year and love it!i use it primarily to read and get emails with some surfing. it has worked flawlessly for these applications.,1.0
ORD218990,ID4342128129,2019-01-02,Nickolson,"[('Universe Note', 2), ('Thunder line', 1), ('Lucent 330S', 2)]",11540.0,100.51,-37.8040745,144.9682994,10,10486.51,Summer,True,1.6201,very good value no fingerprint reader,1.0
ORD028071,ID0575384241,2019-12-25,Nickolson,"[('Universe Note', 2), ('Lucent 330S', 1), ('pearTV', 2)]",20750.0,77.7,-37.8193221,144.981828,15,17715.2,Summer,False,1.0826,"great phone i love this phone, don't care that it's a pixel 2, i love this phone, battery life is great!",1.0
ORD216615,ID1458418039,2019-04-21,Bakers,"[('Thunder line', 2), ('Olivia x460', 1), ('iStream', 1), ('Lucent 330S', 1)]",6965.0,84.07,-37.81971729999999,145.0108716,10,6352.57,Autumn,True,1.75,five stars everything worked like it said.,1.0
ORD075364,ID0309346989,2019-12-26,Bakers,"[('Olivia x460', 2), ('Candle Inferno', 1)]",2880.0,72.4,-37.8149275,144.99983569999995,15,2520.4,Summer,False,0.6821,"received it on sunday! i don't know what voodoo you used, but i ordered this phone on a friday and received it on sunday! so far it's a great phone i really like it. the battery life is a little weak but it charges fast.",1.0
ORD371232,ID6167489443,2019-10-07,Nickolson,"[('Universe Note', 1), ('iAssist Line', 2), ('Alcon 10', 2), ('pearTV', 2)]",38420.0,102.74,-37.8131553,144.9596938,0,38522.74,Spring,True,1.0574,amazing brand amazing photos and phone,1.0
ORD271793,ID1492350746,2019-09-10,Thompson,"[('pearTV', 2), ('Olivia x460', 1), ('iAssist Line', 2), ('Lucent 330S', 1)]",19525.0,110.93,-37.8019975,144.9638804,0,19635.93,Spring,True,1.8969,rapido pero tan solo el detalle del cargador el telefono esta en perfecto estado pero lo que no comprendo porque llego con un cargador de un alcatel onetoch y no el cargador original,1.0
ORD189207,ID4283908894,2019-09-15,Nickolson,"[('pearTV', 1), ('Olivia x460', 1), ('Candle Inferno', 1)]",7965.0,100.34,-37.8125122,144.974308,0,8065.34,Spring,True,0.7959,"more than i expected the phone is better than expected for the price. looks great, maybe a little slower than my old phone but not by much. still getting used to it but so far i like it! arrived fast, as described, no complaints.",1.0
ORD311664,ID6024429125,2019-01-26,Thompson,"[('Alcon 10', 2), ('Universe Note', 2)]",24800.0,74.19,-37.81487910000001,144.94184909999996,0,24874.19,Summer,True,0.5206,don't like that digico has so many ads going on this thing. makes it pretty not fun to use.,0.0
ORD190725,ID3185713658,2019-12-27,Bakers,"[('Candle Inferno', 1), ('Universe Note', 1)]",3880.0,99.21,-37.7989318,144.98739740000005,10,3591.21,Summer,True,1.4113,all good all good and in time,1.0
ORD219404,ID0257506661,2019-05-30,Thompson,"[('Alcon 10', 1), ('pearTV', 1)]",15260.0,70.17,-37.799997399999995,144.963181,0,15330.17,Autumn,False,1.9998,"i love this phone i love this phone. it feels slick and solid in your hand. while it is not the most powerful android device, it is well made and being pure android definitely improves performance. considering the price as well, it is more powerful than it may seem on paper.",1.0
ORD042855,ID0317535755,2019-05-27,Nickolson,"[('iAssist Line', 1), ('Universe Note', 1), ('Thunder line', 2), ('Olivia x460', 1)]",11260.0,68.36,-37.8051377,144.96418630000005,15,9639.36,Autumn,False,1.5706,"best i ever had! this is the best smartphone i ever had! ever! big screen, quality display, enough storage and ram, decent camera! at about $340, this phone is a definite bargain!",1.0
ORD303228,ID1492145844,2019-08-01,Thompson,"[('Lucent 330S', 1), ('Olivia x460', 1), ('Candle Inferno', 1), ('Alcon 10', 1)]",11835.0,62.52,-37.813247,144.95137240000003,15,10122.27,Winter,False,0.3838,five stars great product,1.0
ORD471491,ID0571731102,2019-12-15,Thompson,"[('iStream', 1), ('Alcon 10', 1)]",9100.0,63.56,-37.8241345,144.943471,0,9163.56,Summer,False,1.3145,i havr family mobile and this phone won't work. ... i havr family mobile and this phone won't work.. i've used other t-mobile phones but this one won't seem to work. i've tried everything.,0.0
ORD094037,ID6167344370,2019-07-25,Nickolson,"[('Thunder line', 1), ('Candle Inferno', 2)]",3040.0,75.22,-37.81319860000001,144.96812690000004,0,3115.22,Winter,True,0.6136,thank you all good,1.0
ORD335617,ID1826195267,2019-08-23,Bakers,"[('Olivia x460', 2), ('Universe Note', 1), ('Alcon 10', 2)]",23800.0,70.62,-37.8136782,145.01403200000001,0,23870.62,Winter,False,1.1370744323342417,"amazing i love it. it's an excellent phone. note: pop sockets will not stick to the silicone case. me encanta, es un tel茅fono excelente. ojo: los pop sockets no se pegan al forro de silic贸n.",1.0
ORD485609,ID0561538913,2019-01-27,Bakers,"[('Toshika 750', 1), ('Olivia x460', 2), ('pearTV', 2), ('Universe Note', 1)]",22840.0,99.81,-37.7983664,145.0014642,15,19513.81,Summer,True,1.4058,i really liked the build quality but the very lackluster performance and minuscule battery life didn't make it a keeper for me.,1.0
ORD315423,ID4716795168,2019-11-20,Thompson,"[('Toshika 750', 1), ('pearTV', 2)]",16940.0,61.98,-37.818804899999996,144.95337080000004,5,16154.98,Spring,False,0.8792,one star phone re-locked itself after 4 months of use. very frustrating.,0.0
ORD459832,ID2707996427,2019-09-18,Nickolson,"[('Toshika 750', 2), ('Lucent 330S', 1), ('Olivia x460', 2)]",12320.0,92.67,-37.8040123,144.9692993,25,9332.67,Spring,True,1.6235,not unlocked if i could give it less i would im in another country and ordered this phone for my mom and it was not unlocked now she is having problems and isnt able to use it!!!! horrible advertisement,0.0
ORD464834,ID3215191989,2019-05-05,Thompson,"[('Thunder line', 1), ('pearTV', 2), ('iAssist Line', 1), ('Alcon 10', 1)]",25975.0,78.12,-37.8056528,144.95108290000005,15,22156.87,Autumn,True,1.201777866233111,four stars like it exactly what i want thanks,1.0
ORD026384,ID2181275331,2019-01-02,Nickolson,"[('Olivia x460', 1), ('pearTV', 1), ('Thunder line', 1), ('Alcon 10', 2)]",27615.0,76.37,-37.8093604,144.9643574,5,26310.62,Summer,False,1.1249,five stars great,1.0
ORD428939,ID3204395237,2019-02-07,Thompson,"[('Alcon 10', 1), ('Lucent 330S', 1), ('Candle Inferno', 2)]",11040.0,54.47,-37.8069403,144.9488771,25,8334.47,Summer,False,0.6577,junk a piece of junk!!!,0.0
ORD322079,ID3427761887,2019-03-22,Bakers,"[('Toshika 750', 1), ('pearTV', 2)]",16940.0,65.41,-37.8055058,144.99788600000005,0,17005.41,Autumn,False,0.5517,great product good quality,1.0
ORD430738,ID0577517978,2019-12-27,Nickolson,"[('pearTV', 1), ('Universe Note', 2), ('Toshika 750', 2)]",21850.0,73.99,-37.82674650000001,144.9745513,0,21923.99,Summer,False,1.001367104041592,great camera features purchased for my son. he is very pleased with the purchase. it has a lot of features which he enjoys eg the front and rear cameras.,1.0
ORD080734,ID0370242326,2019-08-04,Nickolson,"[('Universe Note', 2), ('Candle Inferno', 2), ('Alcon 10', 2), ('pearTV', 2)]",38280.0,57.87,-37.7999955,144.9719925,10,34509.87,Winter,False,2.0815,didn't do the job it was not listed as a prepaid phone. couldn't activate it at verizon. i wound up having to purchase another phone anyway and couldn't return it.,0.0
ORD137150,ID0780992436,2019-11-12,Thompson,"[('Toshika 750', 1), ('iAssist Line', 1), ('Alcon 10', 2)]",24445.0,102.14,-37.8054558,144.9522831,10,22102.64,Spring,True,0.9251,ok ok,1.0
ORD315577,ID0589428217,2019-03-16,Nickolson,"[('Olivia x460', 2), ('Thunder line', 1)]",4630.0,65.15,-37.8096744,144.9725331,25,3537.65,Autumn,False,1.0271,toshika experia xa 1 ultra sometimes i have problems with wi fi connection. everything works good,1.0
ORD101388,ID0145245938,2019-01-01,Thompson,"[('Universe Note', 2), ('Thunder line', 2), ('iStream', 2), ('Alcon 10', 2)]",29460.0,73.49,-37.816739500000004,144.9602506,5,28060.49,Summer,False,1.001367104041592,ok phone i loved the style of this phone but the volume was not loud enough even when i turned it alll the way up i also could not hear the text messages i got,1.0
ORD112280,ID0294624680,2019-04-08,Nickolson,"[('Alcon 10', 2), ('Lucent 330S', 2), ('Thunder line', 1)]",22540.0,77.34,-37.8194034,144.9631209,5,21490.34,Autumn,True,0.5725,works great love,1.0
ORD332192,ID4520380489,2019-04-05,Thompson,"[('Toshika 750', 2), ('Lucent 330S', 2), ('Olivia x460', 2)]",13550.0,79.64,-37.806468100000004,144.9558626,5,12952.14,Autumn,True,1.0369,battery lasts 3 days! great phone!,1.0
ORD471853,ID0547568750,2019-02-09,Bakers,"[('iAssist Line', 1), ('iStream', 2)]",2525.0,58.1,-37.8104122,144.98826630000005,25,1951.85,Summer,False,0.6144,the phone that was sent to us was from yemen ... the phone that was sent to us was from yemen and could not be unlocked and made usable in the us,0.0
ORD108243,ID0576868170,2019-07-21,Nickolson,"[('Olivia x460', 1), ('pearTV', 1), ('iStream', 2)]",7835.0,66.19999999999982,-37.8237007,144.9868771,0,7901.2,Winter,True,1.6261,don't buy this product!!! i couldn't get this phone activated anywhere it was a waste of time!!!,0.0
ORD206032,ID0663120884,2019-03-30,Thompson,"[('Olivia x460', 1), ('Thunder line', 2)]",5585.0,68.81,-37.800112899999995,144.95536040000005,5,5374.56,Autumn,False,1.5769,"droid turbo rocks fast shipment, good prize. device very good and the battery is excellent. if you use smartphone like a ""mobile office"" this is a device to have.",1.0
ORD246938,ID4297530218,2019-06-24,Bakers,"[('Olivia x460', 1), ('Candle Inferno', 1), ('iAssist Line', 1)]",3880.0,81.49,-37.8059722,144.9794514,10,3573.49,Winter,True,1.4584,"five stars its perfect, i love it.",1.0
ORD412537,ID0711331420,2019-02-18,Thompson,"[('pearTV', 1), ('Olivia x460', 1)]",7535.0,95.7,-37.8071537,144.9564681,0,7630.7,Summer,True,1.03,five stars great phone!!! works well,1.0
ORD107027,ID4716795753,2019-11-29,Thompson,"[('Universe Note', 2), ('Thunder line', 2), ('Candle Inferno', 1)]",11690.0,76.56,-37.8188326,144.9532351,25,8844.06,Spring,False,0.8742,five stars i like it,1.0
ORD087047,ID1449289349,2019-04-12,Bakers,"[('iStream', 2), ('Alcon 10', 1)]",9250.0,64.71,-37.8160154,144.9851741,15,7927.21,Autumn,True,1.1097,useless. product was advertised as unlocked useless. product was advertised as unlocked. however it is registered to t-mobile. i spent an hour trying to setup an account with it at an at&t store. t-mobile refused to unlock it without me first setting up a t-mobiel account (which i never wanted to do and which would cost $70/month).,0.0
ORD029033,ID4326586224,2019-06-28,Nickolson,"[('Candle Inferno', 2), ('Olivia x460', 2), ('Lucent 330S', 1), ('pearTV', 2)]",17160.0,64.2,-37.8171905,144.9645271,15,14650.2,Winter,False,0.4686,"worth the money , updates and functions perfect still working perfectly",1.0
ORD042695,ID0576879082,2019-09-11,Nickolson,"[('iAssist Line', 2), ('Thunder line', 2), ('Universe Note', 2)]",15710.0,60.86,-37.819316,144.97903469999997,10,14199.86,Spring,False,0.8378,"only can use with at&t sim card this phone cannot use with t-mobile sim card ,but it call itself unlock phone,i don't like that.it is a prepaid phone .",0.0
ORD032671,ID2698607289,2019-01-04,Nickolson,"[('Toshika 750', 2), ('iAssist Line', 1), ('Thunder line', 1)]",13045.0,96.07,-37.823160200000004,144.9786167,0,13141.07,Summer,True,0.9454,quick and powerful best cellphone i have used so far,1.0
ORD266772,ID0844490705,2019-03-16,Thompson,"[('Olivia x460', 1), ('Alcon 10', 1)]",10175.0,65.34,-37.820764000000004,144.94870459999999,25,7696.59,Autumn,True,0.9121,"phone is not unlocked as described don't buy this phone. the description says it's unlocked, but it is not. the at&t staff people couldn't get it to work, and they know their stuff. this is why i hate digico. products are not as advertised.",0.0
ORD031051,ID0291211340,2019-04-03,Thompson,"[('iStream', 2), ('Candle Inferno', 2)]",1160.0,67.17,-37.8088956,144.9608977,25,937.17,Autumn,False,1.2868,"very good quality ""refurbished"" phone! fast shipping. very clean and great quality ""refurbished"" phone. feels very brand new. no problems so far. cellularedge is a fantastic seller! ",1.0
ORD360251,ID0777790986,2019-07-28,Thompson,"[('Candle Inferno', 1), ('pearTV', 2)]",13050.0,60.82,-37.8082956,144.9548852,0,13110.82,Winter,True,0.8426,box was empty!!! got my shipment. the box only contained a charger. highly unsatisfied.,0.0
ORD208775,ID0452380689,2019-10-17,Thompson,"[('iStream', 1), ('pearTV', 2), ('Candle Inferno', 2)]",13630.0,82.06,-37.82550379999999,144.95160259999997,10,12349.06,Spring,False,1.4829,good refurb like new this phone works verywell and appears brand new.,1.0
ORD098512,ID0576866398,2019-08-14,Nickolson,"[('Toshika 750', 2), ('Candle Inferno', 1)]",9070.0,53.41,-37.8226164,144.98392019999997,10,8216.41,Winter,False,1.3405,"do not buy, fraud, phone not unlocked bought the phone for my cousin in belize and it's not unlocked. worste thing they fail to unlock the phone",0.0
ORD013448,ID0711331302,2019-07-31,Thompson,"[('Toshika 750', 2), ('Candle Inferno', 2)]",9500.0,79.38,-37.8070242,144.956963,25,7204.38,Winter,True,1.0736,phone working excellent.. great customer service with the seller phone working excellent..great customer service with the seller,1.0
ORD470412,ID0443302588,2019-01-19,Bakers,"[('Lucent 330S', 2), ('Alcon 10', 1), ('iStream', 2)]",11710.0,79.43,-37.81252960000001,145.0049281,0,11789.43,Summer,True,0.8981,dbhxbxbx xhdhdbc,0.0
ORD488890,ID0634777749,2019-07-24,Thompson,"[('iStream', 2), ('Alcon 10', 2)]",18200.0,77.48,-37.814892799999996,144.93754850000005,0,18277.48,Winter,True,0.8729,four stars works fine for cheap phone,1.0
ORD410285,ID1459448712,2019-09-15,Bakers,"[('iAssist Line', 2), ('Alcon 10', 1), ('iStream', 2), ('pearTV', 2)]",26320.0,67.61,-37.8195581,145.0080938,5,25071.61,Spring,False,1.5532,"defective phone phone was defective but by the time we realized, the seller wouldnt take a return. also suspect it was refurbished but sold as new.",0.0
ORD462675,ID3189789230,2019-05-30,Nickolson,"[('Lucent 330S', 2), ('iAssist Line', 2), ('Olivia x460', 1), ('Thunder line', 2)]",12495.0,71.87,-37.8019515,144.9683576,15,10692.62,Autumn,False,1.8557,perfect perfect condition! like new!,1.0
ORD283570,ID0506160213,2019-03-15,Thompson,"[('Alcon 10', 1), ('Universe Note', 2)]",15850.0,80.03,-37.8196552,144.9525596,5,15137.53,Autumn,True,1.201777866233111,excellent buy great phone. has all the features i was looking for.,1.0
ORD153457,ID0370243956,2019-04-27,Nickolson,"[('Olivia x460', 2), ('Alcon 10', 1), ('Candle Inferno', 2), ('pearTV', 2)]",24880.0,56.96,-37.8008234,144.9673772,25,18716.96,Autumn,False,1.0845399226327297,it's so slow it's so slow,0.0
ORD327030,ID0579507946,2019-06-14,Thompson,"[('Thunder line', 2), ('pearTV', 2), ('Lucent 330S', 2)]",19440.0,61.77,-37.8137982,144.9484119,10,17557.77,Winter,False,0.1721,recommended recommended,1.0
ORD164164,ID0245537622,2019-01-17,Nickolson,"[('Lucent 330S', 2), ('iAssist Line', 1), ('Candle Inferno', 1), ('Universe Note', 2)]",12015.0,79.39,-37.8108376,144.96556,25,9090.64,Summer,True,0.9661100854118958,waste of money it charged up fine the first time. then it never charged again. just wanted my money.,0.0
ORD225387,ID0279224060,2019-03-23,Thompson,"[('Lucent 330S', 2), ('Universe Note', 2), ('pearTV', 2)]",21980.0,67.05,-37.801131899999994,144.95278019999995,25,16552.05,Autumn,True,1.3794,not worth the money may have just got a bad one out of the bunch,0.0
ORD198650,ID0579986296,2019-03-23,Thompson,"[('pearTV', 2), ('iStream', 1), ('Toshika 750', 2)]",21410.0,60.01,-37.81262329999999,144.947191,10,19329.01,Autumn,True,0.0121,"the glass breaks very easily. the phone is crap and the ""life proof"" ... extremely fragile. the glass breaks very easily. the phone is crap and the ""life proof"" case protector does not work. i've gone through 2 of these phones in 4 months. total waste of money.",0.0
ORD191485,ID0577458724,2019-05-01,Nickolson,"[('Lucent 330S', 2), ('iStream', 2), ('Olivia x460', 2), ('Universe Note', 1)]",8660.0,75.96,-37.81727,144.9711017,10,7869.96,Autumn,True,0.2009,"i have no complaints. as far as i know, these are exactly like new, just a little cheaper. great!",1.0
ORD381931,ID0598401532,2019-12-24,Nickolson,"[('Candle Inferno', 1), ('Alcon 10', 2), ('Thunder line', 2), ('iAssist Line', 1)]",24915.0,91.37,-37.8149591,144.9643868,10,22514.87,Summer,True,0.6083,a10 when i got the battery life i though wouldn't be good but it .asted a whole day and probably longer it quick and works great wouldn't want any other phone love it,1.0
ORD049638,ID0597547728,2019-07-02,Nickolson,"[('Lucent 330S', 2), ('iAssist Line', 1), ('Universe Note', 2), ('Alcon 10', 1)]",20535.0,63.05,-37.8156495,144.9639803,10,18544.55,Winter,False,0.5895,"bought this for my niece and it works perfect, she easily navigates all menus and features...",1.0
ORD492553,ID3240572178,2019-01-06,Thompson,"[('Candle Inferno', 2), ('iAssist Line', 2)]",5310.0,103.29,-37.8054934,144.92967130000005,10,4882.29,Summer,True,1.7262,works great just as described.,1.0
ORD176886,ID2702095679,2019-12-13,Bakers,"[('pearTV', 2), ('Lucent 330S', 1), ('Universe Note', 1), ('Olivia x460', 2)]",19750.0,74.25,-37.8110053,144.9901675,10,17849.25,Summer,True,0.4593,purrchaed att received verizon i ordered g935a unlocked phone (at&t unlocked). however i received the 935v (verizon) which requires cutting the sim card with scissors to make it fit. im very disappointed. ive asked for return instructions and label.,0.0
ORD210508,ID1463620765,2019-05-31,Bakers,"[('Alcon 10', 1), ('Candle Inferno', 1), ('Lucent 330S', 2), ('Universe Note', 1)]",15290.0,78.91,-37.816013500000004,144.99963469999997,0,15368.91,Autumn,True,0.7737,awesome. love it. definitely recommended. good price.,1.0
ORD033480,ID0356448679,2019-01-01,Bakers,"[('pearTV', 1), ('Olivia x460', 1), ('iAssist Line', 1), ('Universe Note', 2)]",16660.0,70.81,-37.8075137,144.9879565,0,16730.81,Summer,False,0.6970000000000001,now that much money this is the best phone ever,1.0
ORD293963,ID4733654593,2019-02-19,Thompson,"[('Lucent 330S', 2), ('iAssist Line', 2)]",6910.0,73.68,-37.8044414,144.94870559999995,25,5256.18,Summer,False,0.9276,its useful its good and i am satisfied with my purchase. it has the basic phone functions which were my requirement from the phone.,1.0
ORD255642,ID3085953531,2019-12-24,Nickolson,"[('iAssist Line', 2), ('Alcon 10', 1), ('pearTV', 1)]",19710.0,75.64,-37.8161657,144.9752775,0,19785.64,Summer,True,0.5716,"phone had a problem phone seemed great but constantly had a message about service provider update after inserting sim card, which rendered the phone useless. spent several hours trying to figure out the problem and called olivia, cricket, sprint but nobody could help.",0.0
ORD198444,ID0576844518,2019-05-02,Bakers,"[('Candle Inferno', 2), ('Thunder line', 2), ('iStream', 2)]",5520.0,68.96,-37.8244324,144.988745,15,4760.96,Autumn,True,1.7053,"advertised as new. first time i tried to add ... advertised as new. first time i tried to add to my sprint account, the phone reset itself and came up in arabic language. no way to use it after that. returned it.",0.0
ORD261728,ID0591431033,2019-07-19,Nickolson,"[('iAssist Line', 1), ('Lucent 330S', 1)]",3455.0,44.97,-37.8178838,144.9678476,10,3154.47,Winter,False,0.1694,customer satisfaction!!!!!!! the batter on this alcon 7 only last for 1 hour. just received the phone yesterday. pear wants $49.00 to replace the battery. this battery needs to be replaced. product purchased from digico from kanga supply. very very disappointed and dissatisfied with this purchase.,0.0
ORD168205,ID0419481487,2019-08-08,Bakers,"[('Lucent 330S', 1), ('Alcon 10', 2), ('Candle Inferno', 1), ('iStream', 1)]",19710.0,77.34,-37.8191071,144.9919458,15,16830.84,Winter,True,1.0546,excellent seller. buyspry. cosmetically flawless. looks brand new. battery life like new. unlocked as described worked immediately that a sim card was inserted.,1.0
ORD316035,ID3804564097,2019-06-07,Bakers,"[('iStream', 2), ('Universe Note', 1), ('iAssist Line', 2), ('Olivia x460', 1)]",9425.0,68.08,-37.82048220000001,144.99480559999995,25,7136.83,Winter,False,1.1679,it gets very hot but doesn't seem to be working any different tho good phone,1.0
ORD415261,ID2299500155,2019-02-20,Thompson,"[('Toshika 750', 2), ('Olivia x460', 2), ('pearTV', 2)]",23710.0,78.93,-37.8051604,144.9602013,10,21417.93,Summer,False,1.4259,note 8 - 5 stars received a note 8 from this seller in mint condition. not a scratch or dent anywhere. phone works perfectly. was a little nervous about buying a pre owned phone online but so glad i did. saved a lot of money and its practically brand new.,1.0
ORD397183,ID6167279418,2019-08-04,Thompson,"[('Olivia x460', 2), ('Alcon 10', 1), ('Toshika 750', 1), ('Candle Inferno', 1)]",16150.0,48.85,-37.811963,144.9558165,25,12161.35,Winter,False,0.7733,"two stars what i don't like about it, is that the information about the phone being unlocked was false advertising.",0.0
ORD039308,ID0575434448,2019-06-06,Nickolson,"[('Toshika 750', 2), ('Alcon 10', 1), ('Universe Note', 2), ('Lucent 330S', 1)]",25720.0,67.97,-37.819804100000006,144.98529069999995,15,21929.97,Winter,False,1.3906,"awesome phone - best in a class brand new original s10+ bast phone of 2019, received the phone quickly and yes its original. i love this phone. ultrasonic fingerprint reader is really cool feature.",1.0
ORD331256,ID6167441030,2019-01-27,Thompson,"[('iAssist Line', 1), ('Toshika 750', 1), ('pearTV', 1)]",12855.0,81.68,-37.8093251,144.9609251,5,12293.93,Summer,True,1.2743,two stars it was'nt unloked,0.0
ORD273897,ID2672310978,2019-03-19,Bakers,"[('Universe Note', 1), ('iStream', 1), ('Olivia x460', 1)]",4825.0,80.84,-37.8026079,144.98771269999997,5,4664.59,Autumn,True,1.0553,"five stars nice phone, excellent condition, no problem at all, fast shipping.",1.0
ORD047524,ID2187770705,2019-11-13,Thompson,"[('Candle Inferno', 1), ('pearTV', 2)]",13050.0,80.13,-37.8090866,144.9635351,25,9867.63,Spring,False,1.115387334832022,sounds great have not used the hub yet,1.0
ORD467661,ID1713449450,2019-11-20,Bakers,"[('Candle Inferno', 1), ('Thunder line', 1), ('iStream', 2)]",2910.0,102.72,-37.8107518,144.986085,0,3012.72,Spring,True,0.8088,great deal! awesome phone. looked brand new. having no issues!,1.0
ORD100290,ID0206204609,2019-10-01,Thompson,"[('Candle Inferno', 2), ('Lucent 330S', 2), ('iStream', 1), ('Universe Note', 1)]",6920.0,82.17,-37.815388299999995,144.9280707,15,5964.17,Spring,False,1.6978,five stars works fine,1.0
ORD252208,ID1224821948,2019-10-26,Thompson,"[('Toshika 750', 2), ('Alcon 10', 2), ('Thunder line', 2), ('Olivia x460', 2)]",33350.0,77.02,-37.8120823,144.9383737,5,31759.52,Spring,False,0.7675,"dedicated winfows user! good, for the price.",1.0
ORD188377,ID4735688216,2019-11-01,Thompson,"[('pearTV', 2), ('Universe Note', 2), ('Alcon 10', 2)]",37420.0,78.41,-37.8038988,144.9491237,10,33756.41,Spring,False,0.9933,"great product easy as a breeze to set, will recommend. thank u digico.",1.0
ORD348341,ID0331416637,2019-04-19,Bakers,"[('Toshika 750', 1), ('Universe Note', 1)]",7770.0,84.41,-37.8215393,145.007936,0,7854.41,Autumn,True,1.7027,five stars thanks perfect,1.0
ORD382309,ID0583064066,2019-06-21,Thompson,"[('iAssist Line', 2), ('Thunder line', 2)]",8810.0,81.87,-37.8083751,144.92880359999995,25,6689.37,Winter,True,1.6761,"excellent quality, unbeatable price / quality / performance excellent quality, unbeatable price / quality / performance",1.0
ORD418498,ID0331417168,2019-12-26,Bakers,"[('Thunder line', 2), ('Universe Note', 2)]",11260.0,104.07,-37.822885799999995,145.010151,25,8549.07,Summer,True,1.9442,all i expected it's what i wanted and works great,1.0
ORD310548,ID0202473725,2019-07-27,Thompson,"[('Thunder line', 2), ('Lucent 330S', 2), ('iAssist Line', 1), ('Candle Inferno', 2)]",9905.0,68.64,-37.8040237,144.93345580000005,0,9973.64,Winter,False,1.5364,five stars loved it !!,1.0
ORD108072,ID3793626740,2019-02-08,Nickolson,"[('Lucent 330S', 2), ('iStream', 2), ('Alcon 10', 1), ('Universe Note', 2)]",18610.0,93.41,-37.823161,144.9779073,25,14050.91,Summer,True,0.8935,love it. spent less money than the latest universe ... love it. spent less money than the latest universe s4 and the alpha has pretty much all the same features.,1.0
ORD252459,ID0371967864,2019-09-08,Nickolson,"[('Toshika 750', 2), ('iStream', 1), ('iAssist Line', 2)]",13240.0,65.87,-37.807026799999996,144.9709796,0,13305.87,Spring,False,1.2939,mal estado de la bater铆a. mala inversi贸n la bater铆a est谩 deteriorada. el m贸vil se descarga en 30 minutos cuando se est谩 usando. muy mala inversi贸n,0.0
ORD258236,ID0304186956,2019-01-09,Nickolson,"[('Toshika 750', 2), ('Alcon 10', 2), ('Universe Note', 2), ('Candle Inferno', 1)]",33870.0,64.55,-37.826033100000004,144.9835017,10,30547.55,Summer,False,1.48,"mine was not a new phone the phone i received was not new. it was a scratched up used phone, put in a box. i immediately returned it.",0.0
ORD152975,ID1982309205,2019-04-30,Bakers,"[('Lucent 330S', 1), ('Alcon 10', 2), ('Thunder line', 2)]",23490.0,50.33,-37.800964,144.99097890000004,5,22365.83,Autumn,False,1.0728,good phone. box is cracked the phone seems to be working ok but the box was cracked. it seems to have been opened before.my unboxing experience was totally ruined.,0.0
ORD491385,ID1668523241,2019-02-15,Nickolson,"[('Thunder line', 2), ('iStream', 2)]",4660.0,89.34,-37.820351,144.9640389,10,4283.34,Summer,True,0.5226,great phone the phone is an upgrade for me. its not too big and its not too small. it does all the functions that i need and the battery last long.,1.0
ORD451874,ID2384091376,2019-06-02,Nickolson,"[('Olivia x460', 1), ('Universe Note', 1), ('pearTV', 2), ('Thunder line', 2)]",21655.0,51.919999999998254,-37.8077129,144.9732421,5,20624.17,Winter,False,1.2541,scam this cell is locked.,0.0
ORD290973,ID1621189042,2019-04-25,Thompson,"[('Thunder line', 1), ('iAssist Line', 1), ('Universe Note', 1), ('pearTV', 2)]",20475.0,47.13,-37.8151511,144.94485559999995,15,17450.88,Autumn,False,0.3376,"good phone, got scammed on my purchase by this seller. screen was defective. best phone i had in my life. got stolen, tried to replaced it from digico. the phone from this seller had a purple vertical line on the screen (bad screen contact?). felt scammed. gifted it and got the s8... still missing the s7 edge though.",0.0
ORD422670,ID4157116186,2019-08-11,Bakers,"[('Olivia x460', 2), ('iAssist Line', 1), ('Universe Note', 2)]",11575.0,77.03,-37.818282399999994,144.9964005,0,11652.03,Winter,True,0.9281,"is a good phone used on a trip ti the islands. worked very well, just wished that i got a case for it. it kept sliding out of my hands. other than that everything was fine with it. got the sim card in and working with no problems.",1.0
ORD069133,ID6206952411,2019-06-30,Thompson,"[('iAssist Line', 2), ('Thunder line', 2), ('Lucent 330S', 2), ('iStream', 2)]",11570.0,70.93000000000029,-37.822638399999995,144.935269,10,10483.93,Winter,False,1.5190000000000001,best investment! love my s6!!!,1.0
ORD388503,ID6126053594,2019-10-26,Nickolson,"[('pearTV', 2), ('Lucent 330S', 2)]",15080.0,71.44,-37.8201239,144.96463280000003,25,11381.44,Spring,False,0.4648,i picked this tablet up for a 5 year old grandchild as a way to learn how to use a tablet works fine .,1.0
ORD367764,ID2189145390,2019-10-08,Thompson,"[('Lucent 330S', 1), ('Toshika 750', 1), ('iAssist Line', 2)]",10000.0,78.22,-37.817553499999995,144.9591934,25,7578.22,Spring,False,0.9182,"this was the best money i spent the phone is working great and didnt come with any scratches or anything wrong with it, everything works well and the battery life is great lasts all day and the company the phone is from is a recycling company so they take phones and fix them. there was no problems.",1.0
ORD248152,ID0634784124,2019-11-16,Thompson,"[('Toshika 750', 1), ('Universe Note', 1)]",7770.0,100.85,-37.813835499999996,144.93723559999995,10,7093.85,Spring,True,0.8744,love it! love this phone! great camera! in very good condition!,1.0
ORD123813,ID0130015101,2019-12-21,Nickolson,"[('Candle Inferno', 2), ('Toshika 750', 2), ('Thunder line', 2), ('Lucent 330S', 1)]",15090.0,68.93,-37.815549600000004,144.9679983,5,14404.43,Summer,False,0.3655,product review better than my olivia.,1.0
ORD018358,ID3212411890,2019-07-02,Thompson,"[('pearTV', 2), ('iAssist Line', 2), ('Universe Note', 1)]",20520.0,60.25,-37.8068714,144.9456083,25,15450.25,Winter,True,0.6585,"don't waste your money this was never what i would call excellent, but after 3 months i can't even text. very bad. my wife got one too and hers is not a lot better.",0.0
ORD037142,ID0224750324,2019-06-20,Bakers,"[('Candle Inferno', 1), ('iStream', 1)]",580.0,78.14,-37.80413789999999,144.98339199999995,0,658.14,Winter,True,1.2287,love the size and sound. good product easy to operate.,1.0
ORD278993,ID2189145399,2019-08-01,Thompson,"[('Toshika 750', 1), ('Thunder line', 2), ('Olivia x460', 2)]",11130.0,76.84,-37.815726299999994,144.9581669,0,11206.84,Winter,True,1.0335,great phone love it,1.0
ORD107779,ID0588197120,2019-11-09,Nickolson,"[('Thunder line', 2), ('Olivia x460', 1), ('Universe Note', 1), ('iStream', 2)]",9335.0,101.44,-37.8120859,144.9738603,15,8036.19,Spring,True,0.8177,five stars great phone and people were very understanding ... easy to work with!,1.0
ORD247927,ID0033366761,2019-09-07,Thompson,"[('Toshika 750', 2), ('Thunder line', 1), ('Alcon 10', 2), ('iAssist Line', 2)]",33170.0,65.5,-37.805381,144.9363949,0,33235.5,Spring,False,1.2409999999999999,lots of money wasted at first i gave this 5 stars. now i'm giving it one because it has a vertical pink line going up and down the phone. i spent a crap load of money on this phone for it to be doing this. i will give it 5 stars again once the problem is fixed or phone is replaced,0.0
ORD200892,ID0370241630,2019-10-10,Nickolson,"[('Thunder line', 1), ('Lucent 330S', 1)]",3410.0,112.07,-37.79935310000001,144.9705615,10,3181.07,Spring,True,2.1438,three stars great phone but i'm having issues receiving messages sometimes i have to restart it in order to receive them,1.0
ORD414213,ID3961293509,2019-07-26,Nickolson,"[('Candle Inferno', 2), ('Toshika 750', 2), ('Universe Note', 2), ('Thunder line', 1)]",18580.0,75.0,-37.8235083,144.9674029,5,17726.0,Winter,True,0.5786,new phone the phone works great !,1.0
ORD289386,ID1492175308,2019-10-08,Thompson,"[('iAssist Line', 2), ('Candle Inferno', 2), ('Alcon 10', 1), ('Thunder line', 1)]",16440.0,85.48,-37.80269129999999,144.96355580000005,15,14059.48,Spring,False,1.8268,love this!,1.0
ORD051981,ID6167285776,2019-11-06,Thompson,"[('Thunder line', 1), ('iStream', 2)]",2480.0,100.63,-37.8118729,144.9564866,0,2580.63,Spring,True,0.833,three stars work well speaker phone not very well for the price it is fine,1.0
ORD383995,ID6167266624,2019-06-01,Thompson,"[('iAssist Line', 2), ('Toshika 750', 1), ('Olivia x460', 1), ('Lucent 330S', 1)]",11225.0,66.18,-37.80962279999999,144.9636872,10,10168.68,Winter,True,0.9208521798365122,"awkward experience the phone is ok, but the seller is not responsive at all.",0.0
ORD101454,ID0395252764,2019-11-16,Bakers,"[('Lucent 330S', 1), ('Candle Inferno', 1), ('pearTV', 2)]",14280.0,111.0,-37.7994265,144.97719709999996,10,12963.0,Spring,True,1.9749,awesome phone just needs to be a windows 8 to ... awesome phone just needs to be a windows 8 to enjoy all the apps. the phone doesn't support the new apps that came out.,1.0
ORD217605,ID0781109177,2019-09-25,Bakers,"[('iStream', 1), ('Lucent 330S', 2)]",2610.0,95.02,-37.816218799999994,145.01561809999995,10,2444.02,Spring,True,1.922,phone was not unlocked phone was not unlocked,0.0
ORD082826,ID1621189025,2019-05-17,Thompson,"[('iStream', 2), ('Olivia x460', 1), ('Lucent 330S', 2), ('Universe Note', 1)]",7435.0,62.7,-37.8152223,144.9448829,10,6754.2,Autumn,False,0.3427,well well,1.0
ORD450500,ID0589423560,2019-06-21,Nickolson,"[('iAssist Line', 1), ('Olivia x460', 2), ('pearTV', 1)]",10985.0,79.7,-37.80954129999999,144.9725823,0,11064.7,Winter,True,1.0425,"communication is wonderful, i am glad to have this perfect phone ... communication is wonderful, i am glad to have this perfect phone for my use.. it is always a reliable tool.",1.0
ORD210470,ID0493873191,2019-04-11,Nickolson,"[('Olivia x460', 1), ('pearTV', 1), ('iStream', 2), ('Candle Inferno', 1)]",8265.0,53.93,-37.8058582,144.97304499999996,25,6252.68,Autumn,False,1.4507,.. touch screen does not work,0.0
ORD122208,ID2383211199,2019-06-24,Nickolson,"[('Lucent 330S', 2), ('pearTV', 2), ('iStream', 2), ('Alcon 10', 2)]",33280.0,78.32,-37.8095512,144.963753,15,28366.32,Winter,True,1.1285,xperia fanatic! best phones out there for the price this is my third song xperia phone and i'll continue to buy them as i need or should i say want because i really don't need a new one but they are just so cool,1.0
ORD462725,ID0282852909,2019-05-03,Bakers,"[('Universe Note', 2), ('iStream', 2)]",7200.0,68.63,-37.800252,145.0095156,25,5468.63,Autumn,True,1.6597,not worth the risk purchased a new phone and got a dirty used phone with pieces missing,0.0
ORD298423,ID0361227566,2019-06-28,Nickolson,"[('Alcon 10', 1), ('iStream', 1)]",9100.0,83.21,-37.80126729999999,144.9748159,25,6908.21,Winter,True,1.9837,"awesome awesome phone, does everything but make dinner for you. if you've had an android smartphone, pretty easy to learn how to use.",1.0
ORD268846,ID3810637323,2019-01-08,Thompson,"[('Toshika 750', 1), ('pearTV', 1), ('Universe Note', 1), ('Candle Inferno', 1)]",14510.0,95.96,-37.82098660000001,144.9427727,15,12429.46,Summer,True,0.9996,"love it. works great, would buy a toshika again in the future.",1.0
ORD303207,ID2662932363,2019-07-26,Bakers,"[('iAssist Line', 2), ('Lucent 330S', 1), ('pearTV', 2)]",18300.0,51.11,-37.8007252,144.994319,10,16521.11,Winter,False,1.0351,"horrible do not buy phone was in reset boot loop when received, had to open the phone and short pins to enter edl mode. this sounds easy but it wasn't, took me several weeks to use and went to three different tecs. could not return because i shipped it to my us po box and i live in mx.",0.0
ORD389982,ID0846566052,2019-07-01,Nickolson,"[('Universe Note', 1), ('iStream', 2), ('Thunder line', 1)]",5930.0,75.71,-37.8234669,144.9675701,25,4523.21,Winter,True,0.5696,"no technology is ever like a real book you can smell, but this little notebook in nice. it does so many things well.",1.0
ORD023301,ID0579383946,2019-12-25,Thompson,"[('Olivia x460', 2), ('Universe Note', 1), ('Toshika 750', 2)]",14540.0,98.11,-37.8250262,144.9422508,25,11003.11,Summer,True,1.4389,five stars good phone,1.0
ORD463364,ID6021320963,2019-08-10,Thompson,"[('Alcon 10', 1), ('Candle Inferno', 2)]",9810.0,75.58,-37.8165715,144.93772019999997,10,8904.58,Winter,True,0.9296,good phone there is only one problem with the phone it is a 3g and the phone gets no service in a lot of places. t mobil said they are updated to 4g so after awhile it won't pick up services hopefully xp will go up to 4/5g,1.0
ORD213432,ID3481124177,2019-11-18,Nickolson,"[('Lucent 330S', 2), ('Toshika 750', 1)]",6780.0,70.97,-37.817906,144.9670943,25,5155.97,Spring,False,0.2292,awesome for pics/vids main reason of purchase got the 128gb no need to lug around a dslr or m43. awesome for pics/vids main reason of purchase.,1.0
ORD357629,ID0356088983,2019-05-01,Bakers,"[('iAssist Line', 2), ('iStream', 1), ('Lucent 330S', 1)]",5830.0,63.350000000000364,-37.816696,144.99879109999995,0,5893.35,Autumn,False,0.8088,"works amazing, using it right now was kinda iffy about ... the phone came just as expected! works amazing , using it right now was kinda iffy about the product the way the packaging came, but it was worth it at the end of the day. would definitely recommend!",1.0
ORD058224,ID5167159988,2019-09-11,Bakers,"[('Universe Note', 2), ('iStream', 1), ('Lucent 330S', 1)]",8280.0,102.66,-37.8117045,145.0050444,0,8382.66,Spring,True,0.8837,"five stars excellent, almost can't tell it is not a new phone. very happy customer.",1.0
ORD319176,ID2270151070,2019-03-06,Bakers,"[('pearTV', 1), ('Thunder line', 2), ('Toshika 750', 1), ('Candle Inferno', 1)]",15420.0,85.52,-37.8226651,145.0152877,0,15505.52,Autumn,True,2.2582,definitely refurbished standard alcon 8 working great only thing it came in a box that said mobile device phone on it total knock off really cheesy and the headphones and charging stuff was gone it was also very clear that it was refurbished,1.0
ORD267312,ID3106292223,2019-09-01,Thompson,"[('Candle Inferno', 1), ('pearTV', 1)]",6740.0,106.09,-37.806742799999995,144.9322051,10,6172.09,Spring,True,1.4645,amazing camera!!! great phone! giant screen.,1.0
ORD012484,ID3132495219,2019-02-09,Nickolson,"[('Thunder line', 1), ('Candle Inferno', 1)]",2610.0,58.34,-37.814062799999995,144.9642958,25,2015.84,Summer,False,0.6842,"not even a year old and it went dark, ... not even a year old and it went dark, stuck in a boot loop and will not power up even after the factory reset.",0.0
ORD300381,ID6167236658,2019-06-17,Nickolson,"[('pearTV', 1), ('Universe Note', 1), ('Olivia x460', 1), ('Alcon 10', 1)]",19935.0,76.81,-37.8114481,144.9646868,0,20011.81,Winter,True,0.9033,four stars good,1.0
ORD408091,ID3394725967,2019-11-11,Thompson,"[('iAssist Line', 1), ('Candle Inferno', 1), ('Thunder line', 1)]",4835.0,102.8,-37.815805499999996,144.95820469999995,25,3729.05,Spring,True,1.0395,works good great phone,1.0
ORD115825,ID1496246612,2019-05-23,Nickolson,"[('Candle Inferno', 1), ('Toshika 750', 2), ('Alcon 10', 2), ('Thunder line', 2)]",31330.0,65.99,-37.825848799999996,144.9792724,0,31395.99,Autumn,False,1.1759,unlocked olivia s6 reverting to being locked. i bought this phone and it was working good until recently. it went back to being locked and would not recognized my sim card. tried factory reset. no success. will digico be able to help me?,1.0
ORD455287,ID0456876517,2019-09-05,Thompson,"[('iStream', 2), ('Thunder line', 2)]",4660.0,110.37,-37.7976169,144.9528668,5,4537.37,Spring,True,1.7519,"and i really like how intuitive the phone and interface are i've had the phone for a few months, and i really like how intuitive the phone and interface are. simple to use, great screen, and hasn't caught inferno, not an pear, and doesn't cost an arm and a leg.",1.0
ORD452203,ID0277368222,2019-06-02,Bakers,"[('Universe Note', 1), ('Alcon 10', 1), ('Candle Inferno', 1)]",12830.0,66.57,-37.8064769,145.0080747,5,12255.07,Winter,False,1.1955,"my wife changed from older pear. able to use ... my wife changed from older pear. able to use so many speedy apps. especially likes google, calendar, messaging and automatic bluetooth connection to car for calls, texts and emails.",1.0
ORD478828,ID0419481487,2019-12-07,Bakers,"[('Lucent 330S', 1), ('pearTV', 1), ('iStream', 2)]",7840.0,76.72,-37.8191071,144.9919458,5,7524.72,Summer,False,1.0546,"good came in perfect condition witha free case, free ear buds, 25w charger and type c to type c cord. all in good condition",1.0
ORD150953,ID6167247327,2019-02-21,Nickolson,"[('Lucent 330S', 1), ('Thunder line', 2), ('Toshika 750', 2), ('Universe Note', 2)]",21130.0,90.7,-37.81634320000001,144.96399119999995,0,21220.7,Summer,True,0.5494,best phone ever!!!!!!!! and i have tried a lotttttt of phones:0 highly recommend it!! i got a co-worker to purchase it as well after trying mine,1.0
ORD099640,ID2555136927,2019-08-05,Thompson,"[('Universe Note', 2), ('iStream', 2), ('Candle Inferno', 2), ('Lucent 330S', 1)]",9290.0,65.99,-37.8001434,144.95028369999997,25,7033.49,Winter,True,1.4232,it was an used broken phone it was used and broken.,0.0
ORD397074,ID3212035128,2019-12-11,Thompson,"[('iAssist Line', 1), ('Toshika 750', 2), ('Thunder line', 2)]",15225.0,70.47,-37.8087101,144.948722,15,13011.72,Summer,False,0.4645,it's easy to use and the camera takes great pictures i bought this for my daughter - she absolutely loves it. it's easy to use and the camera takes great pictures! i like it better than my son's s5. great phone!,1.0
ORD396665,ID0638051079,2019-07-27,Nickolson,"[('Olivia x460', 1), ('Universe Note', 1), ('Toshika 750', 1)]",8995.0,46.53,-37.818287700000006,144.966146,0,9041.53,Winter,False,0.3014,do not order!!! i only gave it one star because i had no choice... phone did not power on at all.,0.0
ORD349239,ID0266733899,2019-08-24,Nickolson,"[('iStream', 1), ('iAssist Line', 1), ('Universe Note', 2)]",9275.0,47.27000000000044,-37.814451299999995,144.9721658,15,7931.02,Winter,False,0.5154,not good at all!,0.0
ORD231126,ID1847879573,2019-01-01,Bakers,"[('iStream', 1), ('pearTV', 1)]",6460.0,99.42,-37.8129185,145.0131232,5,6236.42,Summer,True,1.6067,fast slow in screen fingerprint reader. takes some time to learn your fingerprint. amazing and fast phone. totally worth the money,1.0
ORD404065,ID3293342992,2019-06-12,Nickolson,"[('iStream', 1), ('Lucent 330S', 1), ('Universe Note', 2), ('Toshika 750', 1)]",12600.0,53.19,-37.823839299999996,144.98125430000005,10,11393.19,Winter,False,0.9721511353315168,i have never been able to use it it worked for a week maybe and the screen would not let me do anything when i touch it. at times it would work but never consistently.,0.0
ORD478697,ID1283637393,2019-03-28,Thompson,"[('Toshika 750', 2), ('iStream', 2), ('Olivia x460', 2), ('Lucent 330S', 2)]",13850.0,82.58,-37.802031899999996,144.9570706,5,13240.08,Autumn,True,1.4754,best phone this phone is almost the same as a olivia universe 10. it has 3 cameras on the back face recognition and finger print. this is a big big jump from me from a olivia universe j7 if you have metro or tmobile this phone is your best option,1.0
ORD351085,ID0577522821,2019-06-29,Nickolson,"[('Toshika 750', 2), ('iAssist Line', 2), ('Alcon 10', 1)]",22040.0,75.71,-37.8226969,144.9750325,5,21013.71,Winter,True,0.6639,five stars excellent,1.0
ORD170445,ID0441586985,2019-12-21,Thompson,"[('Lucent 330S', 1), ('Olivia x460', 1), ('Alcon 10', 2)]",20355.0,58.35,-37.8134235,144.93813319999995,10,18377.85,Summer,False,0.9395244971219905,bad sound quality the black plastic covering the finger print reader button fell off and the phone has a bad thunder sound whenever anyone calls despite several attempts to fix it with customer service.,0.0
ORD422183,ID2347007258,2019-05-14,Nickolson,"[('Olivia x460', 2), ('pearTV', 2), ('iAssist Line', 2)]",19520.0,67.52,-37.8238502,144.9836936,10,17635.52,Autumn,True,1.3743,buyer beware!! back was cracked in several places. screen severely scratched. phone locked so unable to immediately see if it works. spent over $800 would not recommend.,0.0
ORD248746,ID0202767927,2019-12-18,Thompson,"[('Thunder line', 2), ('iAssist Line', 1)]",6585.0,70.71,-37.8049802,144.92496719999997,25,5009.46,Summer,False,2.1241,spartan technologies phone is advertised as a t-mobile phone. however the phone is not compatible with t-mobile at all. false advertising and a terrible seller.,0.0
ORD193221,ID1545387619,2019-07-02,Thompson,"[('Universe Note', 2), ('Alcon 10', 2), ('pearTV', 2)]",37420.0,69.74,-37.8012917,144.95667419999995,10,33747.74,Winter,False,1.5228,very satisfied with the product,1.0
ORD180201,ID6167413260,2019-01-15,Nickolson,"[('Alcon 10', 1), ('iAssist Line', 2), ('Candle Inferno', 1)]",13830.0,73.26,-37.81361629999999,144.9656842,25,10445.76,Summer,False,0.6502,wonderful phone best phone,1.0
ORD442855,ID0575428932,2019-10-21,Nickolson,"[('Olivia x460', 1), ('Toshika 750', 2), ('Alcon 10', 2), ('Universe Note', 1)]",31215.0,105.2599999999984,-37.819012799999996,144.9846939,15,26638.01,Spring,True,1.3324,outstanding product at a great price. very much to my liking and expectationsthe phone is flawless works great with my boost mobile highly recommend doing business with you again.,1.0
ORD472645,ID0356088791,2019-05-24,Bakers,"[('Olivia x460', 2), ('Thunder line', 1), ('Toshika 750', 1)]",8950.0,79.98,-37.81694810000001,144.996212,25,6792.48,Autumn,True,0.7787,will recommen love this phone,1.0
ORD361980,ID4315827368,2019-10-04,Bakers,"[('pearTV', 1), ('iStream', 1), ('Toshika 750', 1)]",10780.0,74.85,-37.8132344,145.0001751,10,9776.85,Spring,False,0.5647,five stars good deal,1.0
ORD195157,ID0547568785,2019-10-08,Bakers,"[('Thunder line', 1), ('Lucent 330S', 1), ('Olivia x460', 1), ('Toshika 750', 2)]",13275.0,60.100000000000364,-37.8127465,144.9884014,15,11343.85,Spring,False,0.6742,it was too slow he didn't put any attention to it. battery didn't last.,0.0
ORD442375,ID0277368251,2019-02-26,Bakers,"[('Lucent 330S', 1), ('iAssist Line', 1), ('Candle Inferno', 2)]",4315.0,96.3,-37.806425,145.0080358,10,3979.8,Summer,True,1.1942,a good upgrade good phone.,1.0
ORD113157,ID0214092481,2019-09-23,Bakers,"[('iStream', 1), ('Alcon 10', 2), ('Universe Note', 2), ('pearTV', 1)]",31260.0,93.21,-37.80524970000001,145.0151727,10,28227.21,Spring,True,1.8316,charger i get with it charger don't work,0.0
ORD044821,ID2975216739,2019-11-29,Thompson,"[('Toshika 750', 2), ('Universe Note', 2)]",15540.0,85.63,-37.799267799999996,144.95919980000005,0,15625.63,Spring,False,1.8344,"great phone, great price great phone, upgraded 2 lucent g(1) phones and 1 lucent g(3) in the family. everyone is pleased with the upgrade.",1.0
ORD319882,ID1560149571,2019-10-28,Thompson,"[('Alcon 10', 1), ('iAssist Line', 2), ('pearTV', 1)]",19710.0,77.65,-37.8157587,144.9372072,25,14860.15,Spring,False,0.9328,trust this seller actually using this very phone to write this review. everything looked and worked like brand new. couldnt tell it was refurbished. trust this seller definitely,1.0
ORD385319,ID4520380536,2019-03-20,Nickolson,"[('Toshika 750', 1), ('Universe Note', 2)]",11220.0,65.44000000000051,-37.8166259,144.9586935,10,10163.44,Autumn,False,0.9796,like it to do more,1.0
ORD463494,ID5797758281,2019-07-23,Thompson,"[('pearTV', 2), ('iStream', 1), ('Lucent 330S', 2), ('Candle Inferno', 2)]",16090.0,74.32,-37.8072309,144.9452928,10,14555.32,Winter,True,0.6256,"keys always exposed and not totally locking is a concern nice enough phone but returned, primarily due to the keys don't completely lock, allowing unintended 911 or other calls.",1.0
ORD397636,ID2013320345,2019-04-26,Thompson,"[('Thunder line', 2), ('pearTV', 1), ('Olivia x460', 2)]",13120.0,70.23,-37.799795399999994,144.96369219999997,0,13190.23,Autumn,False,2.0476,"slim, lightweight, one-palm-grabbable, fm-radio integrated. it is 512mb version. so, windows 10 upgrade is not available. (available only for 1gb version) but, slim, lightweight, one-palm-grabbable, fm-radio integrated. good price-performance ratio.",1.0
ORD090249,ID4315827375,2019-05-12,Bakers,"[('Toshika 750', 1), ('Lucent 330S', 1), ('pearTV', 2)]",18170.0,67.37,-37.82001210000001,144.99893669999997,5,17328.87,Autumn,False,1.1616,"nice updated phone, great features i didn't know the phone has face recognition. i like the ease of using this phone and that i am able to download several apps i need. i like the way the phone works and feels.",1.0
ORD318464,ID2481930669,2019-08-04,Bakers,"[('Lucent 330S', 2), ('Toshika 750', 1), ('iAssist Line', 1)]",9005.0,65.3,-37.80969210000001,145.0034029,15,7719.55,Winter,False,0.7194,five stars awesome phone,1.0
ORD376408,ID0319157921,2019-06-25,Nickolson,"[('Lucent 330S', 2), ('Candle Inferno', 2), ('Thunder line', 2), ('iAssist Line', 1)]",9905.0,54.09,-37.8056468,144.96821509999995,0,9959.09,Winter,False,1.4461,product didnt work it didnt work,0.0
ORD067626,ID3293340269,2019-05-26,Nickolson,"[('Thunder line', 1), ('Olivia x460', 2), ('Candle Inferno', 1), ('Lucent 330S', 1)]",6290.0,81.75,-37.825274900000004,144.9817565,5,6057.25,Autumn,True,1.3057,five stars love it!!,1.0
ORD314151,ID0679680975,2019-07-31,Bakers,"[('Thunder line', 1), ('Toshika 750', 2)]",10820.0,84.21,-37.7994977,144.9786814,0,10904.21,Winter,True,1.8667,four stars yes but it still had the google lock on it,1.0
ORD163528,ID0847532240,2019-01-12,Nickolson,"[('Universe Note', 2), ('Lucent 330S', 2), ('iStream', 2)]",9660.0,70.74,-37.8208963,144.96700959999995,15,8281.74,Summer,False,0.34,"good for the price! good phone for the price, the battery isn't stellar but if you buy a qualcomm 3.0 charger that will charge the phone quickly it's not much of an issue. the phone feels great in both hands, not overly bulky either.",1.0
ORD220430,ID0253027640,2019-05-26,Thompson,"[('Candle Inferno', 2), ('Lucent 330S', 2), ('Universe Note', 1), ('Olivia x460', 2)]",9220.0,82.81,-37.82412670000001,144.9473767,5,8841.81,Autumn,True,1.201777866233111,get additional memory card great replacement phone,1.0
ORD472011,ID6231506318,2019-01-24,Nickolson,"[('Olivia x460', 2), ('pearTV', 1), ('Lucent 330S', 1), ('Candle Inferno', 2)]",10850.0,78.68,-37.824267600000006,144.970044,15,9301.18,Summer,True,0.6329,"one star this purchase was horrible the phone, the phone worked for less then 2 months",0.0
ORD330452,ID4294210508,2019-10-10,Bakers,"[('Candle Inferno', 2), ('iAssist Line', 2), ('Olivia x460', 2)]",7760.0,105.79,-37.8182522,145.00155900000001,10,7089.79,Spring,True,1.0743,"good quality good product for the price, little bit of extra weight.",1.0
ORD164386,ID0579475339,2019-07-20,Thompson,"[('Lucent 330S', 2), ('Candle Inferno', 1)]",2890.0,65.5,-37.8200701,144.952914,25,2233.0,Winter,False,0.9707,i like the size of the phone but it gets to hot an battery runs down very fast i like the size of the phone but it gets hot and stays hot while you are using it and the battery runs down very fast.,1.0
ORD183112,ID0591317292,2019-08-31,Nickolson,"[('Universe Note', 1), ('iAssist Line', 1)]",5675.0,64.31,-37.825089299999995,144.9571519,10,5171.81,Winter,True,1.3082,one star this product had damage to the corner of phone which is not described on the webpage,0.0
ORD415488,ID6167266601,2019-11-05,Nickolson,"[('iAssist Line', 1), ('Alcon 10', 2), ('Candle Inferno', 2), ('Lucent 330S', 1)]",22215.0,90.36,-37.807367,144.9629436,0,22305.36,Spring,True,1.3783,"refurbished dud i don't think the alcon x is a bad phone overall, i just got a bad refurbished one from trademore mobile. it looked brand new but the touch screen had a dead area so i was never able to even set up the phone.",0.0
ORD469186,ID5402876147,2019-07-13,Nickolson,"[('Olivia x460', 1), ('Toshika 750', 1), ('iAssist Line', 1), ('Universe Note', 1)]",11220.0,75.56,-37.819360700000004,144.97659480000004,0,11295.56,Winter,True,0.6252,worth the money works well and yet to see how the battery behaves over time.....,1.0
ORD494225,ID4283908120,2019-04-12,Nickolson,"[('Olivia x460', 2), ('Lucent 330S', 1), ('Candle Inferno', 1)]",4110.0,80.29,-37.8083157,144.9768343,25,3162.79,Autumn,True,1.3113,great phone and features. phone work very well. is a larger phone then i am used to though.,1.0
ORD371170,ID0267318502,2019-08-26,Nickolson,"[('Thunder line', 1), ('pearTV', 1), ('iAssist Line', 2)]",12940.0,79.77000000000044,-37.8244114,144.9581081,0,13019.77,Winter,True,1.1965,further details great camera and design,1.0
ORD293251,ID1985577077,2019-11-08,Nickolson,"[('Universe Note', 2), ('Thunder line', 2)]",11260.0,77.18,-37.8096721,144.9675774,0,11337.18,Spring,False,1.0083,easy to use and lots of handy features. downside is the ads that apparently can't be shut off and you can't upload and and play downloaded youtube videos unless you are online.,1.0
ORD111693,ID0356215162,2019-12-22,Nickolson,"[('Candle Inferno', 1), ('pearTV', 2), ('Thunder line', 2)]",17410.0,64.72,-37.8046157,144.9641205,15,14863.22,Summer,False,1.6278,dummy/display s10+ i had received a dummy/display s10+ in the package of s10+,0.0
ORD016883,ID6226313838,2019-03-30,Nickolson,"[('Alcon 10', 2), ('Candle Inferno', 1)]",18330.0,79.79,-37.818636299999994,144.9827666,15,15660.29,Autumn,True,1.1621,"everithings is good! new phone! thanks, everithings is good!",1.0
ORD207638,ID1411813167,2019-02-23,Thompson,"[('iStream', 2), ('Candle Inferno', 1)]",730.0,82.84,-37.8002654,144.9586466,25,630.34,Summer,False,1.716,five stars it works great!,1.0
ORD050970,ID6202471307,2019-04-17,Nickolson,"[('Thunder line', 2), ('Universe Note', 2), ('Lucent 330S', 1), ('iStream', 2)]",12790.0,65.03,-37.820799900000004,144.97941469999995,0,12855.03,Autumn,False,0.9014,the size and price makes this a best buy! i'm very pleased with my tablet,1.0
ORD325087,ID0702451855,2019-09-01,Thompson,"[('iAssist Line', 2), ('pearTV', 2), ('Olivia x460', 2)]",19520.0,103.3,-37.8044144,144.9421387,10,17671.3,Spring,True,1.0165,good phone good phone,1.0
ORD474868,ID0287629330,2019-10-30,Thompson,"[('iAssist Line', 1), ('Toshika 750', 1), ('Olivia x460', 1), ('Universe Note', 1)]",11220.0,101.47,-37.805057500000004,144.951791,15,9638.47,Spring,True,0.9440000000000001,"good phone, good price for an android phone was shipped fast. battery lasts over 2 days without charging.",1.0
ORD044374,ID3938525752,2019-05-25,Nickolson,"[('iAssist Line', 1), ('Alcon 10', 1), ('iStream', 2), ('pearTV', 2)]",24095.0,46.26,-37.8213709,144.96698130000001,10,21731.76,Autumn,False,0.3828,att go phone.. good value but take care..make sure you block the internet-because it is net capable and you will be charged if you access the net..i bought it to use on my metro account tech couldn't set it up because it is locked and att refused to give me code said digico has to provide..digico rep to follow up mon am..,0.0
ORD127098,ID6167191156,2019-08-11,Nickolson,"[('Candle Inferno', 1), ('Alcon 10', 2), ('Universe Note', 1), ('Toshika 750', 2)]",30420.0,59.81000000000131,-37.8146902,144.9688726,25,22874.81,Winter,True,0.4387,well at&t does not have contracts any more i was and still am very disappointed faults advertising this phone is advertised for 0.01 with two year contract i wanted to buy was sent to at&t. well at&t does not have contracts any more i was and still am very disappointed faults advertising!!!,0.0
ORD277260,ID0370230657,2019-11-15,Nickolson,"[('iAssist Line', 1), ('Universe Note', 2)]",9125.0,111.91,-37.8006883,144.9662159,25,6955.66,Spring,True,2.0148,perfect excellent,1.0
ORD114196,ID5002595097,2019-08-31,Thompson,"[('iStream', 2), ('pearTV', 2)]",12920.0,63.87,-37.8122054,144.9533103,0,12983.87,Winter,False,0.5514,"good deal... state of the art, as far as i am concerned. i love the camera. am still learning to use the darned thing. price was near the high end, but i believe the phone is in excellent refurbished condition.",1.0
ORD432289,ID2885195903,2019-05-04,Nickolson,"[('Candle Inferno', 1), ('Olivia x460', 2)]",2880.0,66.28,-37.8048421,144.9713149,10,2658.28,Autumn,False,1.5388,really good phone this is a great phone for the money. it has replaced my lg g3 as my daily driver. i'm more than satisfied with it so far. i also protect it with a case.,1.0
ORD459478,ID0248746701,2019-05-27,Bakers,"[('pearTV', 2), ('Universe Note', 2), ('Candle Inferno', 2), ('Alcon 10', 2)]",38280.0,63.14,-37.8118516,144.9935419,0,38343.14,Autumn,False,0.2545,it was a perfect starter phone my daughter loves it! it was a perfect starter phone!,1.0
ORD121486,ID5630513723,2019-09-26,Thompson,"[('iAssist Line', 1), ('Thunder line', 1)]",4405.0,100.39,-37.8171161,144.9527937,0,4505.39,Spring,True,0.7057,the most beautiful phone ive ever seen one of the most beautiful and fasters phones out there i highly recommend it.,1.0
ORD062494,ID0030946626,2019-05-14,Nickolson,"[('Candle Inferno', 1), ('Universe Note', 1)]",3880.0,82.94,-37.8045551,144.9717143,25,2992.94,Autumn,True,1.201777866233111,best phone! love love love this phone would buy it twenty times over. got it for great price and in timely manner.,1.0
ORD030495,ID2383218751,2019-02-25,Thompson,"[('iStream', 2), ('Olivia x460', 1), ('Lucent 330S', 1)]",2755.0,81.36,-37.8003244,144.96040390000005,5,2698.61,Summer,False,1.807,bang for your buck outstanding phone for the price. 2nd one i have purchased,1.0
ORD102044,ID3218293552,2019-07-10,Thompson,"[('iStream', 2), ('pearTV', 1), ('Toshika 750', 2), ('Alcon 10', 2)]",33150.0,66.75,-37.805269700000004,144.9538186,0,33216.75,Winter,False,1.0157,five stars phone is nice,1.0
ORD001167,ID0387153023,2019-04-24,Thompson,"[('pearTV', 2), ('Candle Inferno', 2)]",13480.0,78.44000000000051,-37.8063079,144.9498941,15,11536.44,Autumn,True,0.7509,one of the best inexpensive tablets on the market. great for the casual user,1.0
ORD478543,ID1479897587,2019-05-29,Nickolson,"[('Alcon 10', 2), ('iAssist Line', 1), ('Universe Note', 2), ('iStream', 2)]",27325.0,78.57,-37.8201081,144.9583279,5,26037.32,Autumn,True,1.0012,very important i love,1.0
ORD074195,ID2189377522,2019-02-17,Nickolson,"[('Universe Note', 2), ('Olivia x460', 1), ('Thunder line', 2), ('Toshika 750', 1)]",16805.0,78.57999999999993,-37.8082812,144.976622,25,12682.33,Summer,False,1.3057,five stars the best phone in your type!!!,1.0
ORD186232,ID1492383932,2019-03-13,Thompson,"[('pearTV', 1), ('iStream', 2), ('Toshika 750', 2), ('Olivia x460', 1)]",16475.0,68.25,-37.8032365,144.9634257,10,14895.75,Autumn,False,1.7813,"128 gb and battery life it's fast, has great storage, it's a great telephone",1.0
ORD378698,ID1479897546,2019-06-21,Nickolson,"[('Universe Note', 2), ('Thunder line', 1), ('Olivia x460', 1)]",10305.0,51.18,-37.8200704,144.9583427,25,7779.93,Winter,False,0.9992,speaker distortion is annoying i received my renewed google pixel 2 xl and the speaker distortion is annoying. supplier should'nt send it as it is obviously damaged. the renew process indicates that the phone is verified and this situation is too obvious too ignore. it is fraud.,0.0
ORD311957,ID5001030338,2019-11-21,Thompson,"[('iAssist Line', 1), ('pearTV', 1), ('Alcon 10', 1)]",17485.0,85.97,-37.8114189,144.95284080000005,15,14948.22,Spring,True,0.5265,great price. maybe too small for those who need reading glasses but refuse to wear them during usage of tablet.,0.0
ORD374201,ID5402876524,2019-04-07,Nickolson,"[('iStream', 2), ('Alcon 10', 1), ('pearTV', 1)]",15560.0,78.69,-37.8209791,144.9765768,0,15638.69,Autumn,True,0.6724,"a good deal great device, i bought this phone because of android one and the 2-chip capability. android auto works solid, screen resolution really surprised me. it's important to do some research about carriers frecuencies before buying any phone.",1.0
ORD346648,ID4297530203,2019-01-07,Nickolson,"[('iStream', 2), ('Thunder line', 1), ('Olivia x460', 2)]",4930.0,100.04,-37.805405900000004,144.9744655,10,4537.04,Summer,True,1.5305,"five stars best model phone i've ever owned. arrived on time and is in good condition, as specified in description.",1.0
ORD391511,ID1449297301,2019-06-30,Nickolson,"[('pearTV', 1), ('Universe Note', 1), ('iAssist Line', 1)]",11985.0,49.34,-37.8154546,144.9774748,10,10835.84,Winter,False,0.7796,"basic phone very basic no frills phone. it's an okay phone if you just want to make calls. functions not intuitive, takes greeting used to.",0.0
ORD181862,ID3208518278,2019-11-01,Nickolson,"[('iStream', 1), ('Candle Inferno', 1), ('Thunder line', 2)]",4940.0,81.66,-37.80389829999999,144.96749780000005,15,4280.66,Spring,False,1.6459,good perfect,1.0
ORD429784,ID6167236669,2019-04-12,Nickolson,"[('Alcon 10', 1), ('Toshika 750', 2)]",17590.0,51.590000000000146,-37.8100262,144.9695131,0,17641.59,Autumn,False,0.9539,does not use att prepaid large sim cards bestbuy said it would and i just tried and get sim not allowed error! it's useless for me as i was just upgrading a basic phone that i used for prepaid service.,0.0
ORD049001,ID0581703458,2019-04-05,Thompson,"[('Candle Inferno', 1), ('iAssist Line', 2), ('iStream', 1), ('Alcon 10', 2)]",22930.0,81.44,-37.8097706,144.9300462,0,23011.44,Autumn,True,1.5315,works great and is fast. great for reading and internet use,1.0
ORD100120,ID3132499903,2019-07-13,Nickolson,"[('Lucent 330S', 2), ('pearTV', 1), ('Universe Note', 2), ('Candle Inferno', 1)]",16100.0,75.87,-37.8153421,144.9631363,10,14565.87,Winter,True,0.6703,"old fashioned.... this phone was the one my husband got when we first opened our cell account many years ago. he is not open to change and i wasn't sure i could get this phone again. i am very glad i was able to get it for him, and it is working quite well. thank you.",1.0
ORD425834,ID0163350975,2019-11-09,Thompson,"[('iAssist Line', 1), ('Olivia x460', 2)]",4675.0,101.34,-37.813803799999995,144.95311189999995,10,4308.84,Spring,True,0.5461,i made my daughter very happy it was my christmas present to my daughter and she was very happy with it,1.0
ORD275278,ID0441031803,2019-02-22,Thompson,"[('Universe Note', 1), ('Olivia x460', 2)]",5900.0,74.37,-37.8133599,144.9375612,5,5679.37,Summer,False,0.8396,buying renewed phone is risky great phone. purchased it renewed. unfortunately had to send it back to the seller since the phone randomly rebooted. the customer service was excellent.,1.0
ORD015094,ID0036825329,2019-09-09,Thompson,"[('Alcon 10', 1), ('iStream', 2), ('Universe Note', 1)]",12700.0,83.23,-37.8253131,144.9458456,5,12148.23,Spring,False,1.4111,"other than that it is truly perfect, not one scratch etc only reason it is not five out of five stars is because the battery on this phone doesn't last as long as my other universe s6 phone. other than that it is truly perfect, not one scratch etc.",1.0
ORD090345,ID0777829305,2019-07-21,Thompson,"[('Universe Note', 2), ('iAssist Line', 2), ('Candle Inferno', 1), ('Olivia x460', 1)]",13005.0,81.12,-37.803875,144.95836469999998,5,12435.87,Winter,True,1.395,great phone! only be using this phone for a couple of hours but i must say it's a great value. most important i'm getting lte on t-mobile.,1.0
ORD369328,ID0140980602,2019-04-23,Nickolson,"[('iAssist Line', 1), ('Alcon 10', 1), ('Universe Note', 1), ('Thunder line', 2)]",18985.0,82.45,-37.8010098,144.97241609999998,25,14321.2,Autumn,True,1.9737,great seller had problems with the phone but the seller was very good with making up for it.,1.0
ORD226551,ID2181275328,2019-12-11,Nickolson,"[('Lucent 330S', 1), ('Alcon 10', 2), ('iAssist Line', 1)]",21355.0,83.09999999999854,-37.8083672,144.96777869999997,10,19302.6,Summer,True,1.1491,"not brand new the original seals are broken and the box is sealed with clear stickers. so i requested a replacement. when i received the second one, i was very disappointed because of the same situation as the first one. both of them have ever been opened. i returned them.",0.0
ORD016244,ID6167489436,2019-12-29,Thompson,"[('Candle Inferno', 2), ('Thunder line', 2), ('Lucent 330S', 1), ('iAssist Line', 2)]",10900.0,81.89,-37.81204570000001,144.9594573,15,9346.89,Summer,True,1.0917,"garbage, refurbished is supposed to be to factory new ... garbage, refurbished is supposed to be to factory new specs, i was replacing this phone due to the poor battery performance on my old droid turbo this one is even worse. warning do not buy a refurbished phone.",0.0
ORD406026,ID4716795461,2019-07-23,Thompson,"[('Universe Note', 1), ('iAssist Line', 1)]",5675.0,77.37,-37.81885,144.9531665,5,5468.62,Winter,True,0.872,five stars neat!,1.0
ORD471462,ID3804564094,2019-05-21,Bakers,"[('Olivia x460', 2), ('iStream', 1), ('pearTV', 2), ('Universe Note', 2)]",22120.0,66.55,-37.8197666,144.9949336,25,16656.55,Autumn,False,1.0879,excellent phone excellent phone,1.0
ORD158522,ID0277366121,2019-04-18,Bakers,"[('Universe Note', 2), ('iStream', 1), ('Thunder line', 2)]",11410.0,68.37,-37.802297100000004,145.0136632,5,10907.87,Autumn,False,1.8336,i am very happy with the phone and it works perfectly my previous one star review was erroneous and i apologize for posting it. i am very happy with the phone and it works perfectly.,1.0
ORD464389,ID0579990904,2019-02-14,Thompson,"[('iStream', 2), ('Candle Inferno', 1), ('Thunder line', 1)]",2910.0,75.69000000000005,-37.804508,144.9376613,5,2840.19,Summer,False,1.2291,"100% legit this is a legitimate phone. it works with metro, just got it today and came un a day early. its clean, looks brand new and i appreciate this device in which i'm using for business purposes....",1.0
ORD277439,ID0387153082,2019-07-20,Thompson,"[('Lucent 330S', 2), ('Universe Note', 1), ('Alcon 10', 1)]",14860.0,49.82,-37.8051044,144.9521935,10,13423.82,Winter,False,0.9555,terrible it started off well enough. the phone will not hold a charge. it started just after the digico return agreement ended. the company was not help. i am now stuck with junk,0.0
ORD485401,ID1449295048,2019-02-13,Nickolson,"[('Lucent 330S', 2), ('Candle Inferno', 2)]",3320.0,81.69,-37.8165922,144.98264619999995,5,3235.69,Summer,True,0.9661100854118958,"typing does not work, bought 2 same phones, ... typing does not work, bought 2 same phones, and both with same problem. the screen display is just not working. consider not to buy this phone or the only thing that will bring you will be problems.",0.0
ORD243231,ID1462398958,2019-11-05,Bakers,"[('pearTV', 1), ('Olivia x460', 2)]",8760.0,111.36,-37.820144,145.01398380000003,10,7995.36,Spring,True,1.9988,"and she has been happy about it ever since. not being that tech saavy, this specific device has a user-friendly tutorial to help get started.",1.0
ORD243462,ID3218293522,2019-05-14,Thompson,"[('Alcon 10', 2), ('Olivia x460', 1), ('Candle Inferno', 1), ('iStream', 2)]",19855.0,80.36,-37.803470000000004,144.9467147,10,17949.86,Autumn,True,1.0249,bought this for each of my grandchildren and they loved it. very user friendly,1.0
ORD078191,ID3276407461,2019-03-07,Thompson,"[('pearTV', 2), ('Olivia x460', 1), ('Candle Inferno', 2)]",14705.0,64.9,-37.818692299999995,144.94789450000005,0,14769.9,Autumn,False,0.674,five stars working great on a tmobile mvno.,1.0
ORD055449,ID2174950801,2019-08-13,Thompson,"[('Alcon 10', 1), ('Candle Inferno', 2), ('Olivia x460', 2)]",12260.0,77.32,-37.816125299999996,144.9527318,5,11724.32,Winter,True,0.629,works great nice,1.0
ORD406073,ID5290706364,2019-09-06,Nickolson,"[('Universe Note', 1), ('Toshika 750', 1), ('iStream', 1), ('Lucent 330S', 1)]",9150.0,106.71,-37.808257399999995,144.9766257,10,8341.71,Spring,True,1.3082,great phone works well with metro pcs,1.0
ORD200880,ID0283334276,2019-12-24,Thompson,"[('iStream', 1), ('Lucent 330S', 1)]",1380.0,84.06,-37.8007309,144.95302949999999,25,1119.06,Summer,True,1.429,would have returned but it was too expensive to ship ... would have returned but it was too expensive to ship back! crappy,0.0
ORD380290,ID1492145816,2019-04-13,Thompson,"[('Lucent 330S', 2), ('iAssist Line', 2), ('Olivia x460', 2)]",9360.0,77.02,-37.813229,144.9514476,5,8969.02,Autumn,True,0.39,features olivia is a good brand..stands up to its quality..,1.0
ORD429570,ID0370751789,2019-10-12,Nickolson,"[('pearTV', 1), ('Alcon 10', 2), ('Lucent 330S', 2)]",26670.0,77.03,-37.8155255,144.9878219,5,25413.53,Spring,False,0.8964,great phone great and brand new,1.0
ORD104179,ID1288940385,2019-04-16,Thompson,"[('Thunder line', 2), ('iAssist Line', 1)]",6585.0,64.77,-37.8187,144.9531457,0,6649.77,Autumn,False,0.8577,great product for a great price! perfect condition and works great!,1.0
ORD037354,ID2199396318,2019-07-05,Bakers,"[('iAssist Line', 2), ('Toshika 750', 1), ('Lucent 330S', 1)]",10000.0,74.92,-37.793098799999996,144.9758122,0,10074.92,Winter,False,2.5408,"great phone forget that i-phone expense. this is a wonderful phone, and much less costly!!!!",1.0
ORD275196,ID0634783564,2019-06-18,Thompson,"[('pearTV', 1), ('Candle Inferno', 1), ('Lucent 330S', 2), ('Alcon 10', 2)]",27100.0,65.03,-37.8132995,144.93704019999996,25,20390.03,Winter,False,0.8847,"classy but lacks performance for $300, this has some neat features but completely lacks speed. apps like snapchat and instagram will glitch while shooting or editing videos. for $300 i expected more, considering the s8 is currently only $150 more than the p20 lite.",1.0
ORD014054,ID4520380529,2019-09-05,Thompson,"[('Toshika 750', 1), ('Olivia x460', 1), ('iStream', 2), ('Alcon 10', 1)]",14795.0,103.44,-37.815612200000004,144.95829809999995,0,14898.44,Spring,True,1.0403,"very pleased with it first time i have ever ordered a phone, very pleased with it. it's a great phone and it saved me a ton not getting it from verizon. no monthly fee for it. it might be an older model, but it's a wonderful phone.",1.0
ORD081726,ID0577455294,2019-03-20,Bakers,"[('pearTV', 2), ('iAssist Line', 1), ('iStream', 1)]",14995.0,80.0,-37.823834399999996,144.9907869,10,13575.5,Autumn,True,1.5893,"awesome product for the price. i bought this phone for my wife. i was skeptical by comparing the price vs the specifications. my wife loves it. it is pretty fast. nice storage capacity. the pictures look great, the screen image is awesome. in other words, awesome product for the price.",1.0
ORD497768,ID0777753013,2019-07-22,Thompson,"[('Toshika 750', 2), ('iAssist Line', 1)]",10865.0,77.54,-37.805968,144.95616030000005,0,10942.54,Winter,True,1.0938,worked for it's purpose it fit perfectly for my girlfriend - she was happy so i am happy!,1.0
ORD132570,ID6167191722,2019-06-11,Nickolson,"[('Candle Inferno', 2), ('pearTV', 2)]",13480.0,76.67,-37.81772539999999,144.9592006,10,12208.67,Winter,True,0.9153,"great phone! phone arrived in perfect condition. it looked brand new, other than being in different packaging. didn't come with a manual, but they are easier to access online anyway.",1.0
ORD032976,ID0368389512,2019-04-30,Nickolson,"[('Lucent 330S', 1), ('Thunder line', 2), ('Toshika 750', 2), ('Candle Inferno', 2)]",15090.0,68.42,-37.8010284,144.97023000000004,5,14403.92,Autumn,False,1.9564,"light phone so light., good for one hand.",1.0
ORD079350,ID0282825863,2019-03-03,Thompson,"[('Toshika 750', 1), ('iAssist Line', 2), ('iStream', 1), ('Lucent 330S', 1)]",10150.0,66.25,-37.8044626,144.95095590000003,10,9201.25,Autumn,True,0.9758,phone i received the phone on time. when it was time to connected i was not able because the phone was locked. the phone did not come with the unlock pass code. finally i was able to connected the battery was not good. the phone was not in the condition that the seller said.,0.0
ORD226579,ID0282854568,2019-07-03,Bakers,"[('Universe Note', 2), ('Olivia x460', 2), ('iStream', 1)]",9500.0,83.87,-37.7989055,145.01150900000005,5,9108.87,Winter,True,1.8904,i received what i ordered it's great so far. everything showed up in the same condition that was advertised. i'll update this review if i notice any issues,1.0
ORD245798,ID0287630739,2019-12-04,Thompson,"[('Toshika 750', 1), ('Alcon 10', 1)]",13270.0,92.96,-37.8054046,144.9435795,25,10045.46,Summer,True,0.8654,excellent low-cost phone an excellent product at a very low price.,1.0
ORD138512,ID6167191733,2019-07-23,Nickolson,"[('Olivia x460', 1), ('Alcon 10', 2), ('Candle Inferno', 1)]",19555.0,59.22,-37.8156092,144.96653469999995,5,18636.47,Winter,True,0.9208521798365122,the camera is not good as a olivia it gets hot easly. the camera is not good as a olivia. its china version.,0.0
ORD284592,ID0774518620,2019-05-04,Thompson,"[('Candle Inferno', 2), ('Olivia x460', 1), ('pearTV', 1)]",8395.0,54.39,-37.8064576,144.9597134,25,6350.64,Autumn,False,1.3097,phone for some reason was acting weird the c谩mara glitch ... phone for some reason was acting weird the c谩mara glitch and the audio was in slow mo voice.. weird phone,0.0
ORD473897,ID6207245783,2019-01-13,Nickolson,"[('iAssist Line', 2), ('iStream', 1), ('Alcon 10', 1), ('Universe Note', 2)]",20450.0,96.23,-37.8094804,144.9744559,25,15433.73,Summer,True,1.1025,would buy again better then i thought it would be 10/10,1.0
ORD175087,ID6167254974,2019-06-27,Nickolson,"[('Universe Note', 2), ('Lucent 330S', 2), ('iAssist Line', 2), ('iStream', 2)]",14110.0,72.54,-37.818112,144.97000930000004,25,10655.04,Winter,True,0.0672,great s7 great phone,1.0
ORD151602,ID2173290777,2019-10-01,Nickolson,"[('iAssist Line', 2), ('pearTV', 2), ('iStream', 1)]",17220.0,76.76,-37.822282200000004,144.9609429,5,16435.76,Spring,False,0.8611,"bhakta this is the smart phone i ve ever used. very nice function, wide screen, nice picture quality, i like it",1.0
ORD133503,ID0035523908,2019-01-26,Thompson,"[('Lucent 330S', 1), ('Toshika 750', 2)]",9870.0,101.15,-37.80052420000001,144.9558648,25,7503.65,Summer,True,1.558,time for change great value! works like a champ! move over alcon it's a new kid on the block!,1.0
ORD408096,ID3810637318,2019-01-31,Thompson,"[('iStream', 1), ('Thunder line', 2)]",4510.0,95.34,-37.820673799999994,144.94173600000005,10,4154.34,Summer,True,1.0065,"it's a safe buy. i was sceptical at first, buying a phone off of digico. but after purchasing and using the phone for about a month and a half, i am sure i would do it again when it comes time for an upgrade. the phone was in almost perfect condition. i couldn't tell it had ever been used.",1.0
ORD291224,ID0248746914,2019-09-03,Bakers,"[('Toshika 750', 1), ('Lucent 330S', 1), ('Candle Inferno', 2), ('Universe Note', 2)]",13310.0,107.17,-37.821971399999995,144.99403999999996,25,10089.67,Spring,True,1.3372,for the price it's a bargain. this is a perfect solution for a reader and simple browsing. i use this at night before bed.,1.0
ORD310539,ID0356096360,2019-02-21,Bakers,"[('iStream', 2), ('Lucent 330S', 1)]",1530.0,79.67,-37.81891160000001,144.9927827,0,1609.67,Summer,True,1.0156,too difficult to set up.  it keeps timing out before you can enter the password,0.0
ORD319796,ID6167359503,2019-09-16,Nickolson,"[('Candle Inferno', 1), ('Thunder line', 2), ('Olivia x460', 2), ('Universe Note', 1)]",10690.0,63.04,-37.8093808,144.9729656,5,10218.54,Spring,False,1.0688,"delivered damaged phone delivered on time, but the screen was cracked on delivery.",0.0
ORD279625,ID0130015092,2019-07-08,Nickolson,"[('Thunder line', 2), ('Olivia x460', 2), ('Alcon 10', 1)]",15760.0,58.57,-37.815713,144.9687988,25,11878.57,Winter,True,0.3276,waste of money screen broke on the first day,0.0
ORD446107,ID3967630114,2019-02-17,Thompson,"[('Thunder line', 1), ('Alcon 10', 2)]",20080.0,77.59,-37.819088,144.9517341,10,18149.59,Summer,True,0.8235,"bad camera no very happy at moment, the phone camera has started to go bad, and tgere is no way to contact seller",0.0
ORD443572,ID4807112220,2019-02-26,Thompson,"[('iStream', 2), ('Lucent 330S', 1), ('pearTV', 2), ('Toshika 750', 2)]",22790.0,101.11,-37.79968020000001,144.9373507,0,22891.11,Summer,True,1.68,best standard phone. access to micro sd card is really good. construction is rugged and the phone is great on battery life. love it for a basic phone when texting and internet is not the main need.,1.0
ORD225399,ID1449431621,2019-02-10,Nickolson,"[('Lucent 330S', 2), ('Candle Inferno', 1), ('Universe Note', 1)]",6340.0,90.58,-37.8135784,144.97404980000005,0,6430.58,Summer,True,0.6844,nice upgrade from s5. nice upgrade from my former smartphone. many improved functions.,1.0
ORD073063,ID6209089621,2019-07-26,Thompson,"[('Candle Inferno', 2), ('Alcon 10', 1), ('iAssist Line', 1)]",12035.0,76.69,-37.818711,144.9167989,0,12111.69,Winter,False,2.7455,"great size screen and superb hd this phone has met all my expectations with room to spare. touch is very easy to use, great colors and screen clarity. the camera is great with an impressive zoom. would reccomend this phone to all.",1.0
ORD330684,ID3895980379,2019-02-27,Thompson,"[('Universe Note', 2), ('Olivia x460', 1)]",8125.0,85.98,-37.8118128,144.94602,5,7804.73,Summer,True,0.133,"so far so good i love this phone, excellent quality. great battery life.",1.0
ORD040190,ID0387153035,2019-03-14,Thompson,"[('Universe Note', 2), ('Alcon 10', 1)]",15850.0,65.58,-37.809272299999996,144.94574440000005,15,13538.08,Autumn,False,0.3961,great mid range phone. awesome value for the price. great phone for the price. screen is a bit narrow and washed out but the resolution and clarity are great. ui is clean and full of features. menus are snappy and responsive. app sorting is almost non existent. great camera. sturdy. a bit narrow.,1.0
ORD246085,ID0775933376,2019-11-19,Thompson,"[('pearTV', 2), ('iStream', 2), ('Alcon 10', 2), ('Toshika 750', 1)]",35140.0,103.22,-37.8060922,144.95843269999997,15,29972.22,Spring,True,1.2391,five stars great phone and a great price!,1.0
ORD410831,ID0588194357,2019-09-30,Nickolson,"[('Candle Inferno', 2), ('Thunder line', 2), ('Universe Note', 2), ('pearTV', 2)]",24740.0,74.32,-37.8136955,144.9731067,0,24814.32,Spring,False,0.6287,"how to operate the phone i feel i got a good value for the money spent. although, this is my first alcon and i need to learn how to use it.",1.0
ORD262136,ID1463620800,2019-12-20,Bakers,"[('pearTV', 2), ('Candle Inferno', 1), ('Thunder line', 2)]",17410.0,75.45,-37.818709399999996,145.0007791,25,13132.95,Summer,False,1.0857,"great cellphone the design is perfect, and it's very fast.",1.0
ORD115397,ID0643985980,2019-09-11,Bakers,"[('Alcon 10', 1), ('iStream', 2), ('Toshika 750', 1)]",13570.0,75.38,-37.815299700000004,144.9902847,5,12966.88,Spring,False,0.7334,so far so good works well so far.,1.0
ORD283034,ID4716795158,2019-01-01,Thompson,"[('Candle Inferno', 2), ('Olivia x460', 2), ('Lucent 330S', 1), ('iAssist Line', 2)]",8990.0,74.22,-37.8189061,144.9530855,0,9064.22,Summer,False,0.8725,good phone good phone for the money!!! very happy with it!,1.0
ORD184365,ID0054404478,2019-08-28,Thompson,"[('Olivia x460', 1), ('Thunder line', 2), ('Candle Inferno', 2)]",6445.0,67.49,-37.8001078,144.94945380000001,15,5545.74,Winter,False,1.4144,excellent what i wanted. only handicap is the camera quality. very nice cell.,1.0
ORD410053,ID4584856893,2019-04-11,Bakers,"[('Thunder line', 2), ('Olivia x460', 2), ('Alcon 10', 1), ('Candle Inferno', 2)]",16620.0,65.61,-37.8108595,145.0073706,25,12530.61,Autumn,True,1.0719,think twice before buying! ok... so i take picture with it in the rain..... in the rain. now the botton 2 recent and back button do not stop activating.... the phone is useless. refurbished? from what? update: the phone is dead now. buyer beware.,0.0
ORD418481,ID3148693046,2019-11-22,Nickolson,"[('iStream', 2), ('Universe Note', 1)]",3750.0,65.4,-37.8087369,144.97461130000005,15,3252.9,Spring,False,1.1842,price range huge! all of the other reviews saying the 64 gb and the 256 gb are the same price are fake the 64 gb is $660 while the 256 gb is $790.,0.0
ORD188600,ID6167440985,2019-04-05,Nickolson,"[('Thunder line', 2), ('Lucent 330S', 1)]",5590.0,78.95,-37.8143114,144.9630425,0,5668.95,Autumn,True,0.745,"awesome phone awesome phone, loving the features especially the camera; got the aura glow, color is just beautiful. bought as a bundle where i got the olivia earbuds and the olivia power bundle, everything was just awesome.",1.0
ORD080066,ID2140731827,2019-04-20,Thompson,"[('Olivia x460', 1), ('Thunder line', 1), ('pearTV', 2), ('Alcon 10', 1)]",24975.0,73.65,-37.798871399999996,144.9198335,25,18804.9,Autumn,False,2.8457,great! great!,1.0
ORD118622,ID6167413266,2019-09-29,Nickolson,"[('Candle Inferno', 1), ('iStream', 2), ('Lucent 330S', 2), ('Toshika 750', 2)]",11830.0,59.87,-37.8140787,144.9641242,25,8932.37,Spring,False,0.6932,junk the volume control never worked. replacement sent and after 1 month white bar across the screen. was cheap but not worth it all the time wasted and we ended up buying an unused/unopened phone from another seller. customer service was good but product not.,0.0
ORD302763,ID0659636293,2019-11-10,Thompson,"[('iStream', 1), ('Olivia x460', 1)]",1375.0,75.95,-37.8172506,144.9553735,15,1244.7,Spring,False,0.8905,i love my droid turbo i love my droid turbo. it is doing everything i want it to do. i use google docs for work so keep track of load information. so far i have had my phone for a little over a month. the is not quite as fast as the alcon. still takes great pictures.,1.0
ORD195446,ID0777775780,2019-07-08,Thompson,"[('Lucent 330S', 1), ('Candle Inferno', 1), ('Thunder line', 2), ('Toshika 750', 2)]",14660.0,65.16,-37.8048995,144.9508758,5,13992.16,Winter,False,1.1370744323342417,"this inferno tablet is a nice upgrade to the one i purchased 3 years ago. the screen is great, it is very fast, has lots of storage with the sd card, and just an all-around good product. and a great value.",1.0
ORD263375,ID0282825790,2019-03-10,Thompson,"[('Olivia x460', 1), ('Toshika 750', 1), ('iAssist Line', 1)]",7770.0,67.42,-37.8022175,144.9507993,0,7837.42,Autumn,False,1.2093,excellent product 100% functional,1.0
ORD407896,ID0287629328,2019-08-05,Thompson,"[('Toshika 750', 2), ('Alcon 10', 1), ('iStream', 1), ('Thunder line', 2)]",22100.0,64.47,-37.80362570000001,144.951795,0,22164.47,Winter,False,1.0895,five stars better than my last phone,1.0
ORD359019,ID0846566052,2019-10-06,Nickolson,"[('Thunder line', 2), ('iStream', 1), ('pearTV', 2), ('Olivia x460', 1)]",18355.0,99.25,-37.8234669,144.9675701,25,13865.5,Spring,True,0.5696,"great prodycts the product was what i expected, the service was excellent.",1.0
ORD227148,ID0206204617,2019-04-27,Thompson,"[('Candle Inferno', 2), ('Olivia x460', 2), ('iStream', 1)]",3460.0,84.32,-37.8172033,144.9274349,5,3371.32,Autumn,True,1.201777866233111,toshika is always toshika no comparison excellent phone and the sound is incredible that from toshika phone i like the camera and night time simply great,1.0
ORD167809,ID0287629361,2019-07-22,Thompson,"[('Thunder line', 2), ('Candle Inferno', 1), ('Lucent 330S', 1), ('Universe Note', 2)]",12920.0,51.11000000000058,-37.8039972,144.9500263,0,12971.11,Winter,False,1.0002,one star the phone didn't work properly. seller refunded with no difficulty.,0.0
ORD150636,ID6167417975,2019-04-28,Nickolson,"[('Lucent 330S', 1), ('pearTV', 1), ('Alcon 10', 2), ('Olivia x460', 2)]",27890.0,77.88,-37.812642600000004,144.9687743,25,20995.38,Autumn,True,0.6661,"excellent battery life quick sale and shipping. using it as a 32 gb mp3 player w/fm radio when i travel. excellent battery life, too. not too shabby for $5 @!! i'm happy. btw, it came with triple minutes, if i ever use it as a cellphone :)",1.0
ORD011545,ID0547568767,2019-09-04,Bakers,"[('iAssist Line', 1), ('pearTV', 2), ('Candle Inferno', 2), ('Thunder line', 1)]",17885.0,76.89,-37.81253529999999,144.9865756,10,16173.39,Spring,False,0.8121,brought it for my mom this is like her 4th phone took her a few days to ... brought it for my mom this is like her 4th phone took her a few days to get it together but she hasn't complained about it so i take that as a plus,1.0
ORD192098,ID0030942265,2019-02-12,Thompson,"[('Olivia x460', 2), ('iAssist Line', 2), ('Alcon 10', 2), ('iStream', 2)]",25100.0,74.08,-37.8110569,144.9503794,25,18899.08,Summer,True,0.3422,"defective screen after reading and watching multiple reviews, decided to risk with xiaomi brand, and expected reasonable device for a good price with low-resolution screen. but dissapointed. the image is half split with certain gradient and has a rainbow yellow (d)effect on right side. no way to get back to xiaomi again.",0.0
ORD115998,ID0371967865,2019-12-01,Nickolson,"[('pearTV', 2), ('iStream', 2), ('Toshika 750', 1), ('Alcon 10', 2)]",35140.0,99.24,-37.8070505,144.9712139,5,33482.24,Summer,True,1.2934,great phone bad price. this was better priced at 499. 699 is asking to much for a cell phone without a lease or contract.,1.0
ORD328656,ID0282825830,2019-07-08,Thompson,"[('Lucent 330S', 2), ('Alcon 10', 2)]",20360.0,66.8,-37.8033053,144.9510182,15,17372.8,Winter,False,1.0991,great value pick found this bad boy on a third party product review site for value picks and i have to say i am very impressed with this phone for the price. i used to stick to the olivia j series but lucentrola just got a new long term customer.,1.0
ORD346160,ID1479905375,2019-01-13,Thompson,"[('iStream', 1), ('iAssist Line', 1), ('Lucent 330S', 1), ('Universe Note', 1)]",7055.0,77.46,-37.8211718,144.9553904,5,6779.71,Summer,False,1.196,"best phone i've had the honor of owning best phone i've had the honor of owning. easy to use, and for first time smart phone users like my wife it was a heaven send. highly recommended!",1.0
ORD115994,ID0356092106,2019-09-29,Bakers,"[('Candle Inferno', 1), ('Thunder line', 2), ('iStream', 2)]",5090.0,102.48,-37.8188557,144.998089,5,4937.98,Spring,True,1.0177,"lucentrola ftw i just love lucentrola phones! i've had blackberry, htc, olivia and nexus phones and none of them hold a candle to lucentrola. this thing is a battery powerhouse and super thin! love the size!",1.0
ORD181257,ID0634783941,2019-06-01,Thompson,"[('iStream', 2), ('iAssist Line', 1), ('Toshika 750', 1)]",6845.0,65.84,-37.8122993,144.9373433,0,6910.84,Winter,False,0.8563,"great value for this price great value for the money, awsome screen, i would recomend add a protector beacuse rhe one that comes with the phone is very thinn.",1.0
ORD494410,ID2481930755,2019-02-03,Bakers,"[('Alcon 10', 2), ('iAssist Line', 1), ('iStream', 1), ('Candle Inferno', 1)]",20705.0,94.15999999999985,-37.8115594,145.0063953,5,19763.91,Summer,True,0.9971,good price but not too sure if its compatible with cricket loved the price but my cricket sim card wouldn't work....,1.0
ORD060550,ID1964021908,2019-07-23,Nickolson,"[('iStream', 2), ('Alcon 10', 2), ('Olivia x460', 1), ('Toshika 750', 2)]",28065.0,60.62,-37.81876870000001,144.96694219999995,5,26722.37,Winter,False,0.2302,love it. i am loving this phone. all olivia devices seem to have a delay with the screen but i love everything else. so much to do :),1.0
ORD413997,ID1479897586,2019-07-30,Nickolson,"[('iAssist Line', 1), ('Universe Note', 2), ('iStream', 1)]",9275.0,67.31,-37.8201466,144.95825209999995,25,7023.56,Winter,False,1.0085,pears only going to support her for a year and a half more before discontinue an update good cell for 204,1.0
